attributes.Ambience.divey,attributes.Dietary Restrictions.vegan,attributes.Happy Hour,hours.Thursday.open,attributes.Order at Counter,attributes.Hair Types Specialized In.africanamerican,attributes.Hair Types Specialized In.kids,attributes.BYOB,hours.Friday.open,attributes.Good For.latenight,attributes.Outdoor Seating,attributes.Alcohol,attributes.Ambience.classy,attributes.By Appointment Only,attributes.Parking.lot,business_id,attributes.Ambience.touristy,attributes.Corkage,hours.Tuesday.open,attributes.Good For.brunch,categories,attributes.Waiter Service,hours.Monday.open,name,attributes.Parking.street,attributes.Ambience.hipster,attributes.BYOB/Corkage,attributes.Hair Types Specialized In.straightperms,attributes.Music.live,attributes.Dietary Restrictions.dairy-free,attributes.Music.background_music,attributes.Price Range,attributes.Good For.breakfast,attributes.Parking.garage,attributes.Music.karaoke,attributes.Good For Dancing,review_count,attributes.Hair Types Specialized In.asian,state,attributes.Accepts Credit Cards,hours.Friday.close,attributes.Good For.lunch,attributes.Parking.valet,attributes.Take-out,full_address,hours.Thursday.close,attributes.Hair Types Specialized In.coloring,attributes.Good For.dessert,attributes.Music.video,attributes.Dietary Restrictions.halal,attributes.Takes Reservations,hours.Saturday.open,attributes.Ages Allowed,attributes.Ambience.trendy,attributes.Delivery,hours.Wednesday.close,attributes.Wi-Fi,open,city,attributes.Wheelchair Accessible,attributes.Dietary Restrictions.gluten-free,stars,attributes.Dietary Restrictions.kosher,type,attributes.Caters,attributes.Ambience.intimate,latitude,attributes.Good For.dinner,attributes.Coat Check,longitude,hours.Monday.close,attributes.Hair Types Specialized In.extensions,hours.Tuesday.close,hours.Saturday.close,attributes.Good for Kids,attributes.Parking.validated,hours.Sunday.open,attributes.Accepts Insurance,attributes.Music.dj,attributes.Dietary Restrictions.soy-free,attributes.Has TV,hours.Sunday.close,attributes.Ambience.casual,attributes.Hair Types Specialized In.perms,attributes.Dogs Allowed,attributes.Drive-Thru,attributes.Dietary Restrictions.vegetarian,hours.Wednesday.open,attributes.Noise Level,attributes.Smoking,attributes.Attire,attributes.Hair Types Specialized In.curly,attributes.Good For Groups,neighborhoods,attributes.Open 24 Hours,attributes.Ambience.romantic,attributes.Music.jukebox,attributes.Ambience.upscale
,,,10:00,,,,,10:00,,,,,,FALSE,IspFZDcpu9W5NvvJ7QgJZg,,,10:00,,"[u""Women's Clothing"", u""Men's Clothing"", u'Fashion', u'Shopping', u""Children's Clothing""]",,10:00,Gap,FALSE,,,,,,,2,,TRUE,,,7,,NV,TRUE,0:00,,FALSE,,"The Forum Shops At Caesars3500 Las Vegas Blvd SoThe StripLas Vegas, NV 89109",23:00,,,,,,10:00,,,,23:00,,TRUE,Las Vegas,TRUE,,4.5,,business,,,36.1190372,,,-115.1732186,23:00,,23:00,0:00,,FALSE,10:00,,,,,23:00,,,,,,10:00,,,,,,[u'The Strip'],,,,
,,,9:00,,,,,9:00,,,,,,,jiw3ch0LEctehsc3w2hWYA,,,9:00,,"[u'Professional Services', u'Video/Film Production']",,9:00,Aardvark Video and Media Productions,,,,,,,,,,,,,3,,NV,,17:00,,,,"The StripLas Vegas, NV 89052",17:00,,,,,,9:00,,,,17:00,,TRUE,Las Vegas,,,5,,business,,,36.11606908,,,-115.1726525,17:00,,17:00,17:00,,,9:00,,,,,17:00,,,,,,9:00,,,,,,[u'The Strip'],,,,
FALSE,,,17:00,,,,FALSE,17:00,FALSE,FALSE,beer_and_wine,FALSE,,TRUE,cZxez9tUb9hqV3KXq5YPAQ,FALSE,,17:00,FALSE,"[u'Pakistani', u'Indian', u'Restaurants']",TRUE,17:00,India Oven,FALSE,FALSE,no,,,,,2,FALSE,FALSE,,,105,,NV,TRUE,22:30,FALSE,FALSE,TRUE,"2218 Paradise RdThe StripLas Vegas, NV 89104",22:30,,FALSE,,,TRUE,17:00,,FALSE,FALSE,22:30,no,TRUE,Las Vegas,TRUE,,3.5,,business,TRUE,FALSE,36.1446996,TRUE,,-115.1551759,22:30,,22:30,22:30,TRUE,FALSE,17:00,,,,FALSE,22:30,FALSE,,,,,17:00,quiet,,casual,,TRUE,[u'The Strip'],,FALSE,,TRUE
FALSE,,FALSE,9:00,,,,,9:00,,FALSE,none,FALSE,,TRUE,z04vWCDuWoAidvv54X8IdQ,FALSE,,9:00,,"[u'Tobacco Shops', u'Bars', u'Shopping', u'Nightlife', u'Lounges']",,9:00,En Fuego Cigars & Lounge,FALSE,FALSE,,,,,,2,,FALSE,,FALSE,65,,NV,TRUE,23:00,,FALSE,,"328 W Sahara AveThe StripLas Vegas, NV 89102",21:00,,,,,,10:00,,FALSE,,21:00,,TRUE,Las Vegas,TRUE,,4.5,,business,,FALSE,36.1441601,,FALSE,-115.1616961,21:00,,21:00,23:00,,FALSE,10:00,,FALSE,,TRUE,18:00,TRUE,,,,,9:00,average,yes,,,TRUE,[u'The Strip'],,FALSE,,FALSE
,,,9:00,,,,,9:00,,,,,,TRUE,UlAlR-arC6PSKsGbSSQk4w,,,9:00,,"[u'Local Services', u'Dry Cleaning & Laundry']",,9:00,Sparkle Cleaners & Laundry,FALSE,,,,,,,2,,FALSE,,,15,,NV,TRUE,18:00,,FALSE,,"326 W Sahara AveThe StripLas Vegas, NV 89102",18:00,,,,,,,,,,18:00,no,TRUE,Las Vegas,,,3.5,,business,,,36.1441565,,,-115.1615964,18:00,,18:00,,,FALSE,,,,,,,,,,,,9:00,,,,,,[u'The Strip'],,,,
FALSE,,,16:30,FALSE,,,FALSE,16:30,FALSE,FALSE,full_bar,FALSE,,TRUE,YZuHOgbKiP3dN4_ROOUyDQ,FALSE,TRUE,16:30,FALSE,"[u'Steakhouses', u'Restaurants']",TRUE,16:30,Golden Steer Steakhouse,FALSE,FALSE,yes_corkage,,,,,3,FALSE,FALSE,,,393,,NV,TRUE,23:00,FALSE,FALSE,TRUE,"308 W Sahara AveThe StripLas Vegas, NV 89102",23:00,,FALSE,,,TRUE,16:30,,FALSE,FALSE,23:00,free,TRUE,Las Vegas,TRUE,,4,,business,FALSE,FALSE,36.1440928,TRUE,,-115.1611434,23:00,,23:00,23:00,FALSE,FALSE,16:30,,,,TRUE,23:00,FALSE,,FALSE,,,16:30,average,,dressy,,TRUE,[u'The Strip'],,TRUE,,FALSE
FALSE,,,11:00,,,,,,FALSE,FALSE,none,FALSE,,TRUE,SkxqO4FgEJebz7kCzjvYYQ,FALSE,,11:00,FALSE,"[u'Kosher', u'Pizza', u'Restaurants']",TRUE,11:00,Adar Kosher Pizza,FALSE,FALSE,,,,,,2,FALSE,FALSE,,,18,,NV,TRUE,,TRUE,FALSE,TRUE,"318 W Sahara AveThe StripLas Vegas, NV 89102",20:00,,FALSE,,,TRUE,19:00,,FALSE,TRUE,20:00,no,FALSE,Las Vegas,,,2,,business,,FALSE,36.1441474,FALSE,,-115.1613475,20:00,,20:00,0:00,TRUE,FALSE,11:00,,,,FALSE,20:00,FALSE,,,,,11:00,quiet,,casual,,TRUE,[u'The Strip'],,FALSE,,FALSE
FALSE,,,10:00,,,,,10:00,FALSE,FALSE,none,FALSE,,TRUE,Yin_BwfzTOdC8VY9ZD4K6w,FALSE,,10:00,FALSE,"[u'Sandwiches', u'Restaurants']",FALSE,10:00,Capriotti's Sandwich Shop,FALSE,FALSE,,,,,,1,FALSE,FALSE,,,262,,NV,TRUE,20:00,TRUE,FALSE,TRUE,"322 W. SaharaThe StripLas Vegas, NV 89102",20:00,,FALSE,,,FALSE,10:00,,FALSE,TRUE,20:00,no,TRUE,Las Vegas,TRUE,,4,,business,TRUE,FALSE,36.1441292,FALSE,,-115.1614606,20:00,,20:00,20:00,TRUE,FALSE,11:00,,,,FALSE,19:00,TRUE,,,,,10:00,average,,casual,,TRUE,[u'The Strip'],,FALSE,,FALSE
,,,,,,,,,,,,,FALSE,TRUE,mCBX5abwdN7LQkTwzQpokQ,,,,,"[u'Fashion', u'Shopping', u'Jewelry', u'Arts & Crafts', u'Accessories', u'Costumes']",,,American Costumes,FALSE,,,,,,,2,,FALSE,,,19,,NV,TRUE,,,FALSE,,"390 W Sahara AveThe StripLas Vegas, NV 89102",,,,,,,,,,,,,TRUE,Las Vegas,TRUE,,4,,business,,,36.1442454,,,-115.1627574,,,,,,FALSE,,,,,,,,,FALSE,,,,,,,,,[u'The Strip'],,,,
FALSE,,TRUE,10:00,,,,,10:00,,FALSE,full_bar,FALSE,,,76aAcaTbLZwV5-ilnqjC5g,FALSE,,10:00,,"[u'Bars', u'Nightlife']",,10:00,Fat Tuesday,,FALSE,,,,,,1,,,,FALSE,21,,NV,TRUE,2:00,,,,"2000 Las Vegas Blvd SThe StripLas Vegas, NV 89104",1:00,,,,,,10:00,,FALSE,,1:00,,TRUE,Las Vegas,,,4.5,,business,,FALSE,36.1474086,,FALSE,-115.1553903,1:00,,1:00,2:00,,,10:00,,,,FALSE,1:00,FALSE,,,,,10:00,,,,,TRUE,[u'The Strip'],,FALSE,,FALSE
,,,,,,,,,,,,,FALSE,FALSE,EOzUxSrmE6KUHaDbsPkjzg,,,,,"[u'Health & Medical', u'Oxygen Bars', u'Massage', u'Beauty & Spas']",,,Breathe Oxygen Bar,FALSE,,,,,,,2,,FALSE,,,5,,NV,TRUE,,,FALSE,,"2000 Las Vegas Blvd SThe StripLas Vegas, NV 89104",,,,,,,,,,,,,TRUE,Las Vegas,,,2.5,,business,,,36.147388,,,-115.156032,,,,,,FALSE,,FALSE,,,,,,,,,,,,,,,,[u'The Strip'],,,,
,,,,,,,,,,,,,,,WgEYWAyPU3-H4-_GH8f_FQ,,,,,"[u'Food', u'Convenience Stores']",,,Circle K,,,,,,,,,,,,,11,,NV,,,,,,"2308 Las Vegas Blvd SThe StripLas Vegas, NV 89104",,,,,,,,,,,,,TRUE,Las Vegas,,,3,,business,,,36.1451929,,,-115.1567779,,,,,,,,,,,,,,,,,,,,,,,,[u'The Strip'],,,,
,,,,,,,,,TRUE,FALSE,full_bar,,,FALSE,RlUxQZja-n9J0oPi24g8DQ,,,,FALSE,"[u'Diners', u'Restaurants']",TRUE,,Lucky's Cafe,FALSE,,,,,,,2,FALSE,TRUE,,,23,,NV,TRUE,,FALSE,FALSE,,"The Stratosphere2000 Las Vegas Blvd SThe StripLas Vegas, NV 89104",,,FALSE,,,,,,,FALSE,,,FALSE,Las Vegas,TRUE,,3.5,,business,,,36.147911,FALSE,,-115.156585,,,,,TRUE,FALSE,,,,,,,,,,,,,,,casual,,TRUE,[u'The Strip'],,,,
FALSE,,,16:00,,,,,7:00,FALSE,FALSE,beer_and_wine,FALSE,,FALSE,uy9IblmbJogF1TEUc6JHzw,FALSE,,16:00,TRUE,"[u'Buffets', u'Restaurants']",TRUE,16:00,Stratosphere Buffet,FALSE,FALSE,,,,,,2,TRUE,TRUE,,,110,,NV,TRUE,22:00,FALSE,TRUE,FALSE,"Stratosphere Las Vegas2000 S Las Vegas BlvdThe StripLas Vegas, NV 89104",22:00,,TRUE,,,FALSE,7:00,,FALSE,FALSE,22:00,no,TRUE,Las Vegas,TRUE,,2.5,,business,TRUE,FALSE,36.1472468,TRUE,,-115.1560311,22:00,,22:00,22:00,TRUE,FALSE,7:00,,,,FALSE,22:00,TRUE,,,,,16:00,average,,casual,,TRUE,[u'The Strip'],,FALSE,,FALSE
FALSE,,,,,,,FALSE,,FALSE,FALSE,beer_and_wine,FALSE,,FALSE,83C1eqPfmQHTy_8MC4Ug6w,TRUE,FALSE,,FALSE,"[u'Diners', u'Restaurants']",TRUE,,Roxy's Diner,FALSE,FALSE,yes_free,,,,,2,FALSE,TRUE,,,233,,NV,TRUE,,TRUE,FALSE,TRUE,"Stratosphere Casino, Hotel & Tower2000 Las Vegas Blvd SThe StripLas Vegas, NV 89104",,,FALSE,,,FALSE,,,FALSE,FALSE,,no,TRUE,Las Vegas,TRUE,,3,,business,FALSE,FALSE,36.14770952,FALSE,,-115.1552059,,,,,TRUE,FALSE,,,,,FALSE,,FALSE,,,,,,average,,casual,,TRUE,[u'The Strip'],,FALSE,,FALSE
FALSE,,,0:00,,,,,0:00,FALSE,FALSE,none,FALSE,,TRUE,dH3rJa4JSxmlyAwg8kPLOQ,FALSE,,0:00,FALSE,"[u'American (Traditional)', u'Restaurants']",TRUE,0:00,Denny's,FALSE,FALSE,,,,,,2,TRUE,FALSE,,,36,,NV,TRUE,0:00,FALSE,FALSE,TRUE,"1826 S Las Vegas BlvdThe StripLas Vegas, NV 89104",0:00,,FALSE,,,FALSE,0:00,,FALSE,FALSE,0:00,free,TRUE,Las Vegas,TRUE,,3,,business,FALSE,FALSE,36.14938091,FALSE,,-115.1539853,0:00,,0:00,0:00,TRUE,FALSE,0:00,,,,FALSE,0:00,TRUE,,,,,0:00,average,,casual,,TRUE,[u'The Strip'],,FALSE,,FALSE
,,,,,,,,,,,,,,,WZ0GljTT1MF10Sf1kMHFXw,,,,,"[u'Hotels & Travel', u'Event Planning & Services', u'Hotels']",,,El Mirador,,,,,,,,1,,,,,3,,NV,FALSE,,,,,"2310 Las Vegas Blvd S Ste AThe StripLas Vegas, NV 89104",,,,,,,,,,,,no,TRUE,Las Vegas,,,1.5,,business,,,36.1448821,,,-115.1572121,,,,,,,,,,,,,,,,,,,,,,,,[u'The Strip'],,,,
,,,8:00,,,,,8:00,,,,,,TRUE,KjBAUYy7m4vhSoFIrz2WjQ,,,8:00,,"[u'Gift Shops', u'Flowers & Gifts', u'Shopping']",,8:00,Bonanza Gift Shop,TRUE,,,,,,,1,,FALSE,,,126,,NV,TRUE,0:00,,FALSE,,"2440 Las Vegas Blvd SThe StripLas Vegas, NV 89104",0:00,,,,,,8:00,,,,0:00,,TRUE,Las Vegas,TRUE,,3,,business,,,36.1442185,,,-115.1571121,0:00,,0:00,0:00,FALSE,FALSE,8:00,,,,,0:00,,,TRUE,,,8:00,,,,,,[u'The Strip'],,,,
,,,,,,,,,,,,,,,YWkRe6CCQKQJgIRrG1fpvw,,,,,"[u'Food', u'Ice Cream & Frozen Yogurt']",,,Haagen Dazs,,,,,,,,,,,,,3,,NV,,,,,,"2000 Las Vegas Blvd SThe StripLas Vegas, NV 89104",,,,,,,,,,,,,TRUE,Las Vegas,,,3,,business,,,36.1474086,,,-115.1553903,,,,,,,,,,,,,,,,,,,,,,,,[u'The Strip'],,,,
,,,,,,,,,,,,,,,HoCYxfoJ5iHWB2JGYFvnyw,,,,,"[u'Hotels & Travel', u'Event Planning & Services', u'Hotels']",,,Fun City Motel,,,,,,,,1,,,,,3,,NV,FALSE,,,,,"2233 Las Vegas Blvd S Ste AThe StripLas Vegas, NV 89104",,,,,,,,,,,,no,TRUE,Las Vegas,,,1,,business,,,36.1450382,,,-115.1555675,,,,,,,,,,,,,,,,,,,,,,,,[u'The Strip'],,,,
,,,,,,,,,,,,,FALSE,FALSE,A_f9ojvR9ujOEnOsfJ5MXw,,,,,"[u'Tattoo', u'Beauty & Spas']",,,Starborn Tattoo,FALSE,,,,,,,2,,FALSE,,,6,,NV,FALSE,,,FALSE,,"2307 Las Vegas Blvd SThe StripLas Vegas, NV 89104",,,,,,,,,,,,,FALSE,Las Vegas,,,5,,business,,,36.1447394,,,-115.1564921,,,,,,FALSE,,,,,,,,,,,,,,,,,,[u'The Strip'],,,,
FALSE,,,17:30,,,,FALSE,17:30,FALSE,FALSE,full_bar,TRUE,,FALSE,8kmIIK2YE6Rcg3HaDVha3w,FALSE,TRUE,17:30,FALSE,"[u'Steakhouses', u'Restaurants']",TRUE,17:30,The Range Steakhouse,FALSE,FALSE,yes_corkage,,,,,3,FALSE,TRUE,,,104,,NV,TRUE,22:30,FALSE,TRUE,FALSE,"Harrahs Las Vegas3475 S Las Vegas BlvdThe StripLas Vegas, NV 89152",22:30,,FALSE,,,TRUE,17:30,,FALSE,FALSE,22:30,no,FALSE,Las Vegas,TRUE,,4,,business,FALSE,FALSE,36.1183787,TRUE,,-115.1726202,22:30,,22:30,22:30,FALSE,FALSE,17:30,,,,TRUE,22:30,FALSE,,,,,17:30,average,,dressy,,TRUE,[u'The Strip'],,TRUE,,TRUE
,,,10:00,,,,,10:00,,,,,,FALSE,Mowwt1lTKccOOc8ExPkL-Q,,,10:00,,"[u""Women's Clothing"", u""Men's Clothing"", u'Fashion', u'Shopping']",,10:00,Brooks Brothers,FALSE,,,,,,,4,,FALSE,,,11,,NV,TRUE,23:00,,FALSE,,"3500 Las Vegas Boulevard SouthSuite 0S52The StripLas Vegas, NV 89109",23:00,,,,,,10:00,,,,23:00,,TRUE,Las Vegas,,,3.5,,business,,,36.117966,,,-115.174839,23:00,,23:00,0:00,,FALSE,10:00,,,,,23:00,,,,,,10:00,,,,,,[u'The Strip'],,,,
,,,8:30,,,,,8:30,,,,,,TRUE,gS91Cpl82GwikC3Ig05qWg,,,8:30,,"[u'Shopping', u'Pawn Shops']",,8:30,John's Loan & Jewelry Co,FALSE,,,,,,,1,,FALSE,,,5,,NV,TRUE,19:00,,FALSE,,"2230 S Paradise RdThe StripLas Vegas, NV 89101",19:00,,,,,,8:30,,,,19:00,,TRUE,Las Vegas,TRUE,,2.5,,business,,,36.144223,,,-115.1554166,19:00,,19:00,19:00,,FALSE,,,,,,,,,FALSE,,,8:30,,,,,,[u'The Strip'],,,,
,,,6:30,,,,,,,,,,TRUE,FALSE,pekjBx5Z17tCm5p2W5VSYQ,,,6:30,,"[u'Beauty & Spas', u'Gyms', u'Fitness & Instruction', u'Active Life', u'Day Spas', u'Massage']",,6:30,Paris Spa by Mandara,FALSE,,,,,,,3,,TRUE,,,72,,NV,TRUE,,,FALSE,,"Paris Las Vegas Resort and Spa3655 Las Vegas Blvd SThe StripLas Vegas, NV 89109",19:00,,,,,,6:30,,,,19:00,,TRUE,Las Vegas,,,2.5,,business,,,36.1123576,,,-115.1702213,19:00,,19:00,21:00,FALSE,FALSE,6:30,FALSE,,,,21:00,,,,,,6:30,,,,,,[u'The Strip'],,,,
FALSE,,,,,,,,,FALSE,FALSE,none,FALSE,,FALSE,I0kZ5AgtltKOpZIY8jOJBQ,FALSE,,,FALSE,"[u'Fast Food', u'Sandwiches', u'Restaurants']",FALSE,,Subway,FALSE,FALSE,,,,,,2,FALSE,FALSE,,,12,,NV,TRUE,,FALSE,FALSE,FALSE,"3411 Las Vegas Blvd SThe StripLas Vegas, NV 89109",,,FALSE,,,FALSE,,,FALSE,FALSE,,no,TRUE,Las Vegas,,,2,,business,FALSE,FALSE,36.1207056,FALSE,,-115.1717867,,,,,TRUE,FALSE,,,,,FALSE,,FALSE,,,FALSE,,,loud,,casual,,FALSE,[u'The Strip'],,FALSE,,FALSE
,,,,,,,,,FALSE,FALSE,none,,,FALSE,dm4thvdDU9MKk8sbo6WuBg,,,,FALSE,"[u'Pizza', u'Sandwiches', u'Restaurants']",FALSE,,Noble Roman's Pizza,FALSE,,,,,,,1,FALSE,FALSE,,,11,,NV,TRUE,,FALSE,FALSE,TRUE,"3411 Las Vegas Blvd SThe StripLas Vegas, NV 89109",,,FALSE,,,FALSE,,,,FALSE,,,TRUE,Las Vegas,TRUE,,2.5,,business,,,36.1207056,FALSE,,-115.1717867,,,,,TRUE,FALSE,,,,,,,,,,,,,,,casual,,TRUE,[u'The Strip'],,,,
,,,0:00,,,,,0:00,,,,,,,M85zYyPcMXuGIuMyz7YmfQ,,,0:00,,"[u'Hotels & Travel', u'Event Planning & Services', u'Hotels']",,0:00,Polo Towers,,,,,,,,2,,,,,233,,NV,TRUE,0:00,,,,"3745 Las Vegas Blvd SThe StripLas Vegas, NV 89109",0:00,,,,,,0:00,,,,0:00,paid,TRUE,Las Vegas,,,3,,business,,,36.1065949,,,-115.1709543,0:00,,0:00,0:00,,,0:00,,,,,0:00,,,,,,0:00,,,,,,[u'The Strip'],,,,
,,,0:00,,,,,0:00,FALSE,TRUE,full_bar,,,TRUE,G0nUhYF2q4tnoOPwCjXLig,,,0:00,FALSE,"[u'Arts & Entertainment', u'Resorts', u'Casinos', u'Event Planning & Services', u'Hotels & Travel', u'Hotels']",TRUE,0:00,Excalibur Hotel,FALSE,,yes_free,,,,,2,FALSE,TRUE,,,1798,,NV,TRUE,0:00,FALSE,FALSE,FALSE,"Excalibur Hotel Casino3850 Las Vegas Blvd SThe StripLas Vegas, NV 89109",0:00,,FALSE,,,TRUE,0:00,,,TRUE,0:00,no,TRUE,Las Vegas,TRUE,,2.5,,business,,,36.09873249,FALSE,,-115.1747256,0:00,,0:00,0:00,TRUE,FALSE,0:00,,,,,0:00,,,,,,0:00,,,casual,,TRUE,[u'The Strip'],,,,
,,,,,,,,,,,,,,,On5A3ghCcRN9wdib2JPNog,,,,,"[u'Shopping', u'Souvenir Shops']",,,Crazy Ely,,,,,,,,,,,,,4,,NV,TRUE,,,,,"3743 Las Vegas Blvd SThe StripLas Vegas, NV 89109",,,,,,,,,,,,,TRUE,Las Vegas,,,2.5,,business,,,36.1067305,,,-115.1719754,,,,,,,,,,,,,,,,,,,,,,,,[u'The Strip'],,,,
,,,0:00,,,,,0:00,,,,,FALSE,TRUE,LrMFas19mewVC9vxI-zkoA,,,0:00,,"[u'Shopping', u'Drugstores']",,0:00,CVS Pharmacy,FALSE,,,,,,,1,,FALSE,,,74,,NV,TRUE,0:00,,FALSE,,"3758 S Las Vegas BlvdThe StripLas Vegas, NV 89109",0:00,,,,,,0:00,,,,0:00,,TRUE,Las Vegas,TRUE,,4,,business,,,36.10557,,,-115.173624,0:00,,0:00,0:00,,FALSE,0:00,,,,,0:00,,,,,,0:00,,,,,,[u'The Strip'],,,,
,,,10:00,,,,,10:00,,,,,,FALSE,cE16HnvfgpTAk2GW3mF4Aw,,,10:00,,"[u'Museums', u'Arts & Entertainment']",,10:00,Madame Tussauds Las Vegas,FALSE,,,,,,,2,,TRUE,,,366,,NV,TRUE,21:30,,FALSE,,"3377 S Las Vegas BlvdSte 2001The StripLas Vegas, NV 89109",20:00,,,,,,10:00,,,,20:00,,TRUE,Las Vegas,TRUE,,4,,business,,,36.12121972,,,-115.1711914,20:00,,20:00,21:30,TRUE,FALSE,10:00,,,,,20:00,,,,,,10:00,,,,,,[u'The Strip'],,,,
,,,10:00,,,,,10:00,,,,,,FALSE,Y37LBcBEni--WrFsK-O18g,,,10:00,,"[u'Fashion', u'Shopping', u'Shoe Stores']",,10:00,The Walking Company,FALSE,,,,,,,3,,TRUE,,,9,,NV,TRUE,22:00,,FALSE,,"Fashion Show Mall3200 Las Vegas Blvd SThe StripLas Vegas, NV 89109",21:00,,,,,,10:00,,,,21:00,,TRUE,Las Vegas,TRUE,,3,,business,,,36.1277253,,,-115.1744147,21:00,,21:00,22:00,,FALSE,11:00,,,,,19:00,,,,,,10:00,,,,,,[u'The Strip'],,,,
,,,10:00,,,,,10:00,,,,,FALSE,,V9M3UQkY4qY9sCd4BeBOTQ,,,10:00,,"[u'Shopping', u'Cosmetics & Beauty Supply', u'Beauty & Spas']",,10:00,L'occitane,,,,,,,,3,,,,,6,,NV,TRUE,21:00,,,,"Fashion Show Mall3200 Las Vegas Blvd SThe StripLas Vegas, NV 89109",21:00,,,,,,10:00,,,,21:00,,TRUE,Las Vegas,,,4.5,,business,,,36.12762875,,,-115.1738175,21:00,,21:00,21:00,,,11:00,,,,,19:00,,,,,,10:00,,,,,,[u'The Strip'],,,,
,,,10:00,,,,,10:00,,,,,,FALSE,3yS5YojW3gTJor5abgH_SQ,,,10:00,,"[u'Fashion', u'Shopping', u'Shoe Stores']",,10:00,Aldo Shoes,FALSE,,,,,,,2,,TRUE,,,8,,NV,TRUE,21:00,,FALSE,,"Fashion Show Mall3200 Las Vegas Blvd SThe StripLas Vegas, NV 89109",20:00,,,,,,10:00,,,,21:00,,TRUE,Las Vegas,,,2,,business,,,36.1277253,,,-115.1744147,21:00,,21:00,20:00,,FALSE,11:00,,,,,19:00,,,,,,10:00,,,,,,[u'The Strip'],,,,
,,,,,,,,,,,,,,,l5NtmITgZNxDN4NvKEOYcg,,,,,"[u'Tobacco Shops', u'Shopping']",,,Don Pablo Cigar Company,,,,,,,,2,,,,,6,,NV,TRUE,,,,,"3049 Las Vegas Blvd SThe StripLas Vegas, NV 89109",,,,,,,,,,,,,FALSE,Las Vegas,,,4,,business,,,36.1314967,,,-115.1645622,,,,,,,,,,,,,,,,,,,,,,,,[u'The Strip'],,,,
,,,10:00,,,,,10:00,,,,,FALSE,FALSE,KQ301YQbVZxvGjSkpvvLqw,,,10:00,,"[u'Leather Goods', u'Fashion', u'Shopping', u'Accessories', u'Watches']",,10:00,Fossil Store,FALSE,,,,,,,3,,FALSE,,,4,,NV,TRUE,21:00,,FALSE,,"3200 Las Vegas Blvd.1290The StripLas Vegas, NV 89109",21:00,,,,,,10:00,,,,21:00,,TRUE,Las Vegas,,,4,,business,,,36.12737264,,,-115.1693738,21:00,,21:00,21:00,,FALSE,11:00,,,,,19:00,,,,,,10:00,,,,,,[u'The Strip'],,,,
,,,0:00,,,,,0:00,,,,,,,65EJzWvIUnE1YwpfW6Jl1Q,,,0:00,,"[u'Hotels & Travel', u'Arts & Entertainment', u'Casinos', u'Event Planning & Services', u'Hotels']",,0:00,Harrah's Las Vegas Hotel & Casino,,,,,,,,2,,,,,877,,NV,TRUE,0:00,,,,"Harrah's Las Vegas Hotel & Casino3475 Las Vegas Blvd SouthThe StripLas Vegas, NV 89109",0:00,,,,,,0:00,,,,0:00,paid,TRUE,Las Vegas,,,2.5,,business,,,36.11928025,,,-115.1713093,0:00,,0:00,0:00,FALSE,,0:00,,,,,0:00,,,,,,0:00,,,,,,[u'The Strip'],,,,
,,,,,,,,,,,,,,FALSE,SrBKQWkkSHn73GR1EdxmyA,,,,,"[u""Children's Clothing"", u'Fashion', u'Shopping']",,,Kid's Kastle,FALSE,,,,,,,3,,TRUE,,,6,,NV,TRUE,,,FALSE,,"3500 Las Vegas Blvd SSte H5The StripLas Vegas, NV 89109",,,,,,,,,,,,,TRUE,Las Vegas,TRUE,,4,,business,,,36.11932159,,,-115.1751387,,,,,,FALSE,,,,,,,,,,,,,,,,,,[u'The Strip'],,,,
,,,,,,,,,,,,,,FALSE,Ux31Vwpxx4gK32MuJ7cj4w,,,,,"[u'Food', u'Specialty Food', u'Candy Stores']",,,Godiva Chocolatier,FALSE,,,,,,,2,,TRUE,,,18,,NV,TRUE,,,FALSE,,"3200 Las Vegas Boulevard SThe StripLas Vegas, NV 89109",,,,,,,,,,,,,TRUE,Las Vegas,,,4,,business,,,36.1277253,,,-115.1744147,,,,,,FALSE,,,,,,,,,,,,,,,,,,[u'The Strip'],,,,
,,,11:00,,,,,11:00,FALSE,FALSE,full_bar,,,FALSE,cYHzDCXCxN3byAsh5rXxJA,,TRUE,11:00,FALSE,"[u'Asian Fusion', u'Chinese', u'Restaurants']",TRUE,11:00,Chinois,FALSE,,yes_corkage,,,,,3,FALSE,FALSE,,,33,,NV,TRUE,23:00,FALSE,FALSE,FALSE,"Caesars Palace Hotel & Casino, Forum Shops3500 Las Vegas Blvd SThe StripLas Vegas, NV 89109",22:00,,FALSE,,,TRUE,11:00,,,FALSE,22:00,,FALSE,Las Vegas,TRUE,,2.5,,business,,,36.1190372,TRUE,,-115.176005,22:00,,22:00,23:00,FALSE,FALSE,11:00,,,,,22:00,,,,,,11:00,,,casual,,TRUE,[u'The Strip'],,,,
FALSE,,,11:30,FALSE,,,FALSE,11:30,FALSE,FALSE,full_bar,TRUE,,FALSE,QJlab4DqvBRJPUfg7Vn5ZQ,FALSE,,11:30,FALSE,"[u'American (New)', u'Restaurants']",TRUE,11:30,Spago,FALSE,FALSE,yes_corkage,,,,,3,FALSE,TRUE,,,850,,NV,TRUE,0:00,FALSE,FALSE,FALSE,"The Forum Shops at Caesars3500 Las Vegas Blvd S, Ste G1The StripLas Vegas, NV 89109",23:00,,FALSE,,,TRUE,11:30,,FALSE,FALSE,23:00,no,TRUE,Las Vegas,TRUE,,4,,business,FALSE,FALSE,36.11827292,TRUE,,-115.1734114,23:00,,23:00,0:00,FALSE,FALSE,11:30,,,,FALSE,23:00,FALSE,,,,,11:30,average,,casual,,TRUE,[u'The Strip'],FALSE,FALSE,,FALSE
,,,10:00,,,,,10:00,,,,,,FALSE,yls6yVb_8tluUBmUa-lbdw,,,10:00,,"[u'Leather Goods', u""Men's Clothing"", u""Women's Clothing"", u'Fashion', u'Shopping']",,10:00,Gucci,FALSE,,,,,,,4,,TRUE,,,25,,NV,TRUE,0:00,,FALSE,,"3500 Las Vegas BlvdSuite B17AThe StripLas Vegas, NV 89109",23:00,,,,,,10:00,,,,23:00,,TRUE,Las Vegas,TRUE,,4,,business,,,36.11934354,,,-115.1765349,23:00,,23:00,0:00,,FALSE,10:00,,,,,23:00,,,,,,10:00,,,,,,[u'The Strip'],,,,
,,,10:00,,,,,10:00,,,,,FALSE,FALSE,vBit5A1ZfVhHebR0YvA06w,,,10:00,,"[u'Shopping', u'Cosmetics & Beauty Supply', u'Makeup Artists', u'Beauty & Spas']",,10:00,MAC Cosmetics,FALSE,,,,,,,2,,TRUE,,,120,,NV,TRUE,0:00,,FALSE,,"3500 Las Vegas Blvd. SouthSpace E7The StripLas Vegas, NV 89109",23:00,,,,,,10:00,,,,23:00,,TRUE,Las Vegas,TRUE,,4,,business,,,36.1190372,,,-115.176005,23:00,,23:00,0:00,,FALSE,10:00,,,,,23:00,,,,,,10:00,,,,,,[u'The Strip'],,,,
,,,10:00,,,,,10:00,,,,,,,1gRAXXUUX_8aN505jaEYww,,,10:00,,"[u'Fashion', u'Shopping', u'Shoe Stores']",,10:00,Stuart Weitzman,,,,,,,,,,,,,3,,NV,TRUE,0:00,,,,"3500 Las Vegas Blvd SSte G5The StripLas Vegas, NV 89109",23:00,,,,,,10:00,,,,23:00,,TRUE,Las Vegas,,,4.5,,business,,,36.1173432,,,-115.1763623,23:00,,23:00,0:00,,,10:00,,,,,23:00,,,,,,10:00,,,,,,[u'The Strip'],,,,
,,,,,,,,,,,,,,FALSE,CtoK6Fz7RHJQ4txarmXVzQ,,,,,"[u'Shopping', u'Toy Stores']",,,Build-A-Bear Workshop,FALSE,,,,,,,2,,FALSE,,,5,,NV,TRUE,,,FALSE,,"3663 Las Vegas Blvd SThe StripLas Vegas, NV 89109",,,,,,,,,,,,,TRUE,Las Vegas,,,4.5,,business,,,36.1107323,,,-115.1722365,,,,,,FALSE,,,,,,,,,,,,,,,,,,[u'The Strip'],,,,
,,,,,,,,,,,,,,FALSE,GEJ3L9gD4eWTB9U9SjsBWw,,,,,"[u'Fashion', u'Shopping', u'Accessories']",,,The Tumi Store,FALSE,,,,,,,4,,TRUE,,,6,,NV,TRUE,,,FALSE,,"3200 Las Vegas Boulevard SThe StripLas Vegas, NV 89109",,,,,,,,,,,,,TRUE,Las Vegas,,,4,,business,,,36.1277253,,,-115.1744147,,,,,,FALSE,,,,,,,,,,,,,,,,,,[u'The Strip'],,,,
,,,,,,,,,,,,,,,equkECCa5WxzICTJr3YpBg,,,,,"[u'French', u'Restaurants']",,,Lutece Restaurant,,,,,,,,4,,,,,3,,NV,,,,,,"3355 Las Vegas Blvd SThe StripLas Vegas, NV 89109",,,,,,,,,,,,,FALSE,Las Vegas,,,4.5,,business,,,36.1214517,,,-115.1696112,,,,,,,,,,,,,,,,,,,,,,,,[u'The Strip'],,,,
,,,,,,,,,,,,,,,FJb9JqJzBUaSZstGWGUe3g,,,,,"[u'Museums', u'Arts & Entertainment']",,,Guggenheim Hermitage Museum,,,,,,,,,,,,,10,,NV,,,,,,"3355 Las Vegas Blvd SThe StripLas Vegas, NV 89109",,,,,,,,,,,,,FALSE,Las Vegas,,,4.5,,business,,,36.1214517,,,-115.1696112,,,,,FALSE,,,,,,,,,,,,,,,,,,,[u'The Strip'],,,,
FALSE,,,11:30,,,,TRUE,11:30,FALSE,FALSE,full_bar,TRUE,,FALSE,MTSuKAjBcxQKSG0vX2sQLQ,FALSE,TRUE,11:30,FALSE,"[u'Restaurants', u'Italian']",TRUE,11:30,Valentino,FALSE,FALSE,yes_corkage,,,,,4,FALSE,TRUE,,,163,,NV,TRUE,23:00,FALSE,TRUE,TRUE,"The Venetian3355 Las Vegas Blvd S, Ste 106The StripLas Vegas, NV 89109",23:00,,FALSE,,,TRUE,11:30,,FALSE,FALSE,23:00,free,FALSE,Las Vegas,TRUE,,3.5,,business,TRUE,FALSE,36.1214517,TRUE,,-115.1696112,23:00,,23:00,23:00,FALSE,FALSE,10:30,,,,FALSE,23:00,FALSE,,FALSE,,,11:30,average,,dressy,,TRUE,[u'The Strip'],,FALSE,,FALSE
,,,,,,,,,,,,,,,FPo9M2n8exn_QLxObNAJLw,,,,,"[u'Food', u'Donuts']",,,Krispy Kreme,,,,,,,,,,,,,7,,NV,FALSE,,,,,"3377 S Las Vegas BlvdThe StripLas Vegas, NV 89109",,,,,,,,,,,,,FALSE,Las Vegas,,,4,,business,,,36.1218632,,,-115.1696491,,,,,,,,,,,,,,,,,,,,,,,,[u'The Strip'],,,,
,,,,,,,,,,,,,,,NzepbaoejmkIhEGbpsF8Ug,,,,,[],,,Cafe' Santa Lucia,,,,,,,,,,,,,4,,NV,,,,,,"3355 Las Vegas Boulevard SThe StripLas Vegas, NV 89109",,,,,,,,,,,,,TRUE,Las Vegas,,,2.5,,business,,,36.1214517,,,-115.1696112,,,,,,,,,,,,,,,,,,,,,,,,[u'The Strip'],,,,
,,,,,,,,,,,,,TRUE,,okQXAWS5qEbuHiD7_xOaUw,,,,,"[u'Shopping', u'Jewelry']",,,Ancient Creations,,,,,,,,3,,,,,5,,NV,TRUE,,,,,"Venetian Grand Shops3377 Las Vegas Blvd SThe StripLas Vegas, NV 89109",,,,,,,,,,,,,TRUE,Las Vegas,,,5,,business,,,36.1213977,,,-115.171675,,,,,,,,,,,,,,,,,,,,,,,,[u'The Strip'],,,,
,,,,,,,,,,FALSE,,,,FALSE,d2T0T4biO3aPUXqM9qhuRw,,,,,"[u'Food', u'Ice Cream & Frozen Yogurt', u'Coffee & Tea']",,,Cocolini's,FALSE,,,,,,,2,,TRUE,,,95,,NV,TRUE,,,FALSE,,"3355 Las Vegas Blvd SThe StripLas Vegas, NV 89109",,,,,,,,,,,,no,TRUE,Las Vegas,TRUE,,3,,business,,,36.1214517,,,-115.1696112,,,,,,FALSE,,,,,,,,,,,,,,,,,,[u'The Strip'],,,,
FALSE,,,8:00,,,,FALSE,8:00,FALSE,TRUE,full_bar,FALSE,,FALSE,UBvTnbaRD3h_dD6oXWLCBA,FALSE,FALSE,8:00,FALSE,"[u'Mexican', u'Restaurants']",TRUE,8:00,CaÌ±onita,FALSE,FALSE,yes_free,,,,,2,FALSE,TRUE,,,408,,NV,TRUE,23:00,FALSE,FALSE,TRUE,"Venetian Hotel3377 Las Vegas Blvd SThe StripLas Vegas, NV 89109",22:00,,FALSE,,,TRUE,8:00,,FALSE,FALSE,22:00,free,TRUE,Las Vegas,TRUE,,3.5,,business,TRUE,FALSE,36.12232381,TRUE,,-115.1692923,22:00,,22:00,23:00,TRUE,FALSE,8:00,,,,TRUE,22:00,TRUE,,,,,8:00,average,,casual,,TRUE,[u'The Strip'],,FALSE,,FALSE
,,,10:00,,,,,10:00,,,,,,FALSE,SazFxQogqwJAMbi3dTFVuw,,,10:00,,"[u'Shopping Centers', u'Shopping']",,10:00,The Grand Canal Shoppes,FALSE,,,,,,,3,,TRUE,,,102,,NV,TRUE,0:00,,TRUE,,"The Venetian Hotel3377 Las Vegas Blvd SThe StripLas Vegas, NV 89109",23:00,,,,,,10:00,,,,23:00,,TRUE,Las Vegas,TRUE,,3.5,,business,,,36.1218632,,,-115.1696491,23:00,,23:00,0:00,,FALSE,10:00,,,,,23:00,,,,,,10:00,,,,,,[u'The Strip'],,,,
FALSE,,,,,,,,,FALSE,FALSE,full_bar,FALSE,,FALSE,nnPrX9mNtV5jKpo2cMjPWQ,FALSE,,,FALSE,"[u'Arts & Entertainment', u'American (Traditional)', u'Arcades', u'Restaurants']",TRUE,,Gameworks,FALSE,FALSE,,,,,,2,FALSE,TRUE,,,83,,NV,TRUE,,TRUE,FALSE,FALSE,"3785 Las Vegas Blvd SSte 10The StripLas Vegas, NV 89109",,,FALSE,,,FALSE,,,FALSE,FALSE,,no,FALSE,Las Vegas,TRUE,,3,,business,FALSE,FALSE,36.1035296,TRUE,,-115.1723424,,,,,TRUE,FALSE,,,,,TRUE,,TRUE,,,,,,loud,,casual,,TRUE,[u'The Strip'],,FALSE,,FALSE
,,,0:00,,,,,0:00,,,,,FALSE,FALSE,0RgJ1WveTo4xzofb36IPJQ,,,0:00,,"[u'Shopping', u'Drugstores', u'Beauty & Spas', u'Food', u'Convenience Stores', u'Cosmetics & Beauty Supply']",,0:00,Walgreens,FALSE,,,,,,,2,,TRUE,,,39,,NV,TRUE,0:00,,FALSE,,"3765 Las Vegas Blvd SThe StripLas Vegas, NV 89109",0:00,,,,,,0:00,,,,0:00,,TRUE,Las Vegas,,,4,,business,,,36.105289,,,-115.172149,0:00,,0:00,0:00,,FALSE,0:00,,,,,0:00,,,,,,0:00,,,,,,[u'The Strip'],,,,
,,,,,,,,,,,,,,FALSE,wbynSnBi1hxE0fXuwmB2lg,,,,,"[u'Food', u'Ice Cream & Frozen Yogurt']",,,Haagen Dazs,FALSE,,,,,,,3,,FALSE,,,4,,NV,TRUE,,,FALSE,,"3770 Las Vegas Boulevard SThe StripLas Vegas, NV 89109",,,,,,,,,,,,no,TRUE,Las Vegas,TRUE,,3.5,,business,,,36.1043329,,,-115.17601,,,,,,FALSE,,,,,,,,,,,,,,,,,,[u'The Strip'],,,,
,,TRUE,11:00,,,,FALSE,11:00,FALSE,FALSE,full_bar,,,FALSE,w0cZMOwwEPO7TpHa55DfeA,,FALSE,11:00,FALSE,"[u'Bars', u'Arts & Entertainment', u'Arcades', u'Nightlife', u'Sports Bars', u'Restaurants']",TRUE,11:00,ESPN Zone,FALSE,,yes_free,,FALSE,,,2,FALSE,TRUE,,,68,,NV,TRUE,0:00,TRUE,FALSE,FALSE,"3790 Las Vegas Blvd SThe StripLas Vegas, NV 89109",23:00,,FALSE,FALSE,,FALSE,11:00,,,FALSE,23:00,,FALSE,Las Vegas,TRUE,,3.5,,business,,,36.1030009,TRUE,FALSE,-115.1735161,23:00,,23:00,0:00,TRUE,FALSE,11:00,,FALSE,,,23:00,,,,,,11:00,,no,casual,,TRUE,[u'The Strip'],,,TRUE,
,,,,,,,,,FALSE,,full_bar,,,,Fs9JCi3AtQx2rDP5Vs-3kQ,,,,FALSE,"[u'Seafood', u'Asian Fusion', u'Restaurants']",TRUE,,Crustacean Restaurant,,,,,,,,3,FALSE,,,,6,,NV,TRUE,,FALSE,,FALSE,"3663 Las Vegas Blvd SThe StripLas Vegas, NV 89109",,,FALSE,,,,,,,,,,FALSE,Las Vegas,,,4,,business,,,36.1107323,FALSE,,-115.1722365,,,,,,,,,,,,,,,,,,,,,dressy,,TRUE,[u'The Strip'],,,,
,,,,,,,,,,,,,,FALSE,Dpc8YjXWD2k7us1w4o_AAg,,,,,"[u'Fashion', u'Shopping']",,,Banana Republic,FALSE,,,,,,,2,,TRUE,,,13,,NV,TRUE,,,FALSE,,"Forum Shops at Caesar's Palace3500 Las Vegas Blvd SThe StripLas Vegas, NV 89109",,,,,,,,,,,,,TRUE,Las Vegas,,,3.5,,business,,,36.1184085,,,-115.1748892,,,,,,FALSE,,,,,,,,,,,,,,,,,,[u'The Strip'],,,,
,,,10:00,,,,,10:00,,,,,,FALSE,4Ss7dG57sLMnEVULLWLSeg,,,10:00,,"[u'Shopping', u'Outlet Stores']",,10:00,Ralph Lauren,FALSE,,,,,,,3,,FALSE,,,4,,NV,TRUE,0:00,,FALSE,,"3327 Las Vegas Blvd SThe StripLas Vegas, NV 89109",23:00,,,,,,10:00,,,,23:00,,TRUE,Las Vegas,,,4,,business,,,36.1226408,,,-115.1675152,23:00,,23:00,0:00,,FALSE,10:00,,,,,23:00,,,,,,10:00,,,,,,[u'The Strip'],,,,
,,,,,,,,,,,,,,,joUCiZiP8jqA2LTAKP-aXQ,,,,,"[u'Arts & Entertainment', u'Caterers', u'Casinos', u'Event Planning & Services', u'Hotels & Travel', u'Hotels']",,,Mirage Resorts,,,,,,,,3,,,,,3,,NV,TRUE,,,,,"3600 Las Vegas Boulevard SThe StripLas Vegas, NV 89109",,,,,,,,,,,,free,TRUE,Las Vegas,,,3.5,,business,,,36.112238,,,-115.1790843,,,,,TRUE,,,,,,,,,,,,,,,,,,,[u'The Strip'],,,,
,,,10:00,,,,,10:00,,,,,,FALSE,CSouUEXi0rPE-Dc1MwTrZg,,,10:00,,"[u'Sporting Goods', u'Fashion', u'Shopping', u'Shoe Stores', u'Sports Wear']",,10:00,Nike Brand,FALSE,,,,,,,2,,TRUE,,,70,,NV,TRUE,20:00,,FALSE,,"3500 Las Vegas Blvd SSte M-5The StripLas Vegas, NV 89109",20:00,,,,,,10:00,,,,20:00,,TRUE,Las Vegas,TRUE,,4,,business,,,36.11664467,,,-115.1765459,20:00,,20:00,20:00,,FALSE,10:00,,,,,18:00,,,,,,10:00,,,,,,[u'The Strip'],,,,
,,,10:00,,,,,10:00,,,,,,FALSE,JGeWyuOFdutslFBM3GxUcQ,,,10:00,,"[u'Local Services', u'Computers', u'Shopping', u'Mobile Phones', u'IT Services & Computer Repair']",,10:00,Apple Store,FALSE,,,,,,,3,,TRUE,,,118,,NV,TRUE,21:00,,FALSE,,"Fashion Show Mall3200 Las Vegas Blvd SThe StripLas Vegas, NV 89109",21:00,,,,,,10:00,,,,21:00,,TRUE,Las Vegas,TRUE,,3.5,,business,,,36.12785911,,,-115.1726896,21:00,,21:00,21:00,,FALSE,11:00,,,,,19:00,,,,,,10:00,,,,,,[u'The Strip'],,,,
,,,,,,,,,,,,,,,c03EKl8r6N5yezCl06PWKQ,,,,,"[u'Fashion', u'Shopping']",,,Dkny,,,,,,,,,,,,,3,,NV,,,,,,"3500 Las Vegas Boulevard SThe StripLas Vegas, NV 89109",,,,,,,,,,,,,TRUE,Las Vegas,,,3.5,,business,,,36.1190372,,,-115.176005,,,,,,,,,,,,,,,,,,,,,,,,[u'The Strip'],,,,
,,,,,,,,,,,,,,FALSE,hjv2UBOHFXsp0KnUY-dNfA,,,,,"[u""Women's Clothing"", u""Men's Clothing"", u'Fashion', u'Shopping', u'Accessories']",,,Hot Topic,FALSE,,,,,,,2,,TRUE,,,7,,NV,TRUE,,,FALSE,,"Fashion Show Mall3200 Las Vegas Blvd SThe StripLas Vegas, NV 89109",,,,,,,,,,,,,TRUE,Las Vegas,,,3,,business,,,36.1277954,,,-115.1734166,,,,,,FALSE,,,,,,,,,,,,,,,,,,[u'The Strip'],,,,
,,,10:00,,,,,10:00,,,,,,FALSE,mIu-I_EAyLPUIH_vV0AfWg,,,10:00,,"[u'Leather Goods', u'Fashion', u'Shopping', u'Accessories']",,10:00,Coach,FALSE,,,,,,,3,,TRUE,,,17,,NV,TRUE,0:00,,FALSE,,"3500 Las Vegas Blvd SThe StripLas Vegas, NV 89109",23:00,,,,,,10:00,,,,23:00,,TRUE,Las Vegas,TRUE,,4.5,,business,,,36.1190372,,,-115.176005,23:00,,23:00,0:00,,FALSE,10:00,,,,,23:00,,,,,,10:00,,,,,,[u'The Strip'],,,,
FALSE,,,6:00,,,,,6:00,FALSE,FALSE,full_bar,FALSE,,FALSE,WT-v-DgQvW38DewVyTLdTA,TRUE,,6:00,TRUE,"[u'Hotels & Travel', u'Arts & Entertainment', u'Casinos', u'Event Planning & Services', u'Hotels']",FALSE,6:00,Circus Circus Las Vegas Hotel and Casino,FALSE,FALSE,,,,,,2,TRUE,TRUE,,,1390,,NV,TRUE,6:00,TRUE,FALSE,FALSE,"2880 S Las Vegas BlvdThe StripLas Vegas, NV 89109",6:00,,FALSE,,,TRUE,6:00,,FALSE,FALSE,6:00,free,TRUE,Las Vegas,,,2.5,,business,FALSE,FALSE,36.13697842,FALSE,,-115.1636285,6:00,,6:00,6:00,TRUE,FALSE,6:00,,,,TRUE,6:00,TRUE,,,,,6:00,very_loud,,casual,,TRUE,[u'The Strip'],,FALSE,,FALSE
FALSE,,,17:30,,,,,17:30,FALSE,FALSE,full_bar,TRUE,,FALSE,LOef7o-dnn7Z5qGMZCi6pw,FALSE,,17:30,FALSE,"[u'Restaurants', u'Italian']",TRUE,17:30,Circo,FALSE,FALSE,no,,,,,4,FALSE,TRUE,,,200,,NV,TRUE,22:30,FALSE,TRUE,FALSE,"Bellagio Las Vegas3600 S Las Vegas BlvdThe StripLas Vegas, NV 89109",22:30,,FALSE,,,TRUE,17:30,,FALSE,FALSE,22:30,free,FALSE,Las Vegas,TRUE,,4,,business,FALSE,FALSE,36.11199,TRUE,,-115.177001,22:30,,22:30,22:30,FALSE,FALSE,17:30,,,,TRUE,22:30,FALSE,,,,,17:30,average,,dressy,,TRUE,[u'The Strip'],,FALSE,,TRUE
,,,10:00,,,,,10:00,,,,,,FALSE,_nQnUYy6-eBNYgQ0dyNnsg,,,10:00,,"[u'Fashion', u'Shopping']",,10:00,Abercrombie & Fitch,FALSE,,,,,,,3,,FALSE,,,6,,NV,TRUE,21:00,,FALSE,,"Fashion Show Mall3200 Las Vegas Blvd S, Ste 1770The StripLas Vegas, NV 89109",21:00,,,,,,10:00,,,,21:00,,TRUE,Las Vegas,,,2.5,,business,,,36.1272241,,,-115.1715512,21:00,,21:00,21:00,,FALSE,11:00,,,,,19:00,,,,,,10:00,,,,,,[u'The Strip'],,,,
,,,,,,,,,,,,,,FALSE,5RXPxvBSML-0yQveVjY8Lg,,,,,"[u""Men's Clothing"", u'Fashion', u'Shopping']",,,Hugo Boss,FALSE,,,,,,,3,,TRUE,,,13,,NV,TRUE,,,FALSE,,"3500 Las Vegas Blvd SThe StripLas Vegas, NV 89109",,,,,,,,,,,,,TRUE,Las Vegas,TRUE,,4,,business,,,36.1190372,,,-115.176005,,,,,,FALSE,,,,,,,,,,,,,,,,,,[u'The Strip'],,,,
,,,10:00,,,,,10:00,,,,,,FALSE,q2nsXRFme__jIuu_Nrye2g,,,10:00,,"[u'Shopping', u'Home Decor', u'Home & Garden', u'Furniture Stores']",,10:00,Z Gallerie,FALSE,,,,,,,3,,TRUE,,,11,,NV,TRUE,21:00,,FALSE,,"Fashion Show3200 Las Vegas Boulevard S, Ste 2630The StripLas Vegas, NV 89109",21:00,,,,,,10:00,,,,21:00,,TRUE,Las Vegas,TRUE,,3,,business,,,36.12764981,,,-115.1712656,21:00,,21:00,21:00,,FALSE,11:00,,,,,19:00,,,,,,10:00,,,,,,[u'The Strip'],,,,
,,,10:00,,,,,10:00,,,,,,,3NQ8_b-aQw9tpgg1yytfYg,,,10:00,,"[u""Women's Clothing"", u""Men's Clothing"", u'Fashion', u'Shopping', u'Shoe Stores']",,10:00,Skechers Factory Outlet,,,,,,,,2,,,,,10,,NV,TRUE,21:00,,,,"Fashion Show Mall3200 Las Vegas Blvd S, Ste 1240The StripLas Vegas, NV 89109",21:00,,,,,,10:00,,,,21:00,,TRUE,Las Vegas,,,4.5,,business,,,36.1277253,,,-115.1744147,21:00,,21:00,21:00,,,11:00,,,,,19:00,,,,,,10:00,,,,,,[u'The Strip'],,,,
,,,10:00,,,,,10:00,,,,,,FALSE,KAJSVDeMI5bbU_OB_BzkMQ,,,10:00,,"[u""Women's Clothing"", u'Fashion', u'Shopping']",,10:00,White House Black Market,FALSE,,,,,,,3,,FALSE,,,3,,NV,TRUE,21:00,,FALSE,,"Fashion Show Mall3200 Las Vegas Blvd S, Space 1420The StripLas Vegas, NV 89109",21:00,,,,,,10:00,,,,21:00,,TRUE,Las Vegas,,,3,,business,,,36.1272241,,,-115.1715512,21:00,,21:00,21:00,,FALSE,11:00,,,,,19:00,,,,,,10:00,,,,,,[u'The Strip'],,,,
,,,8:00,,,,,8:00,FALSE,FALSE,none,,,TRUE,3ojGEFVvMY2WYk_xhmRjHw,,,8:00,FALSE,"[u'Restaurants', u'Pizza', u'Italian']",FALSE,8:00,L.A. Italian Kitchen,FALSE,,,,,,,2,FALSE,TRUE,,,12,,NV,TRUE,0:00,FALSE,FALSE,TRUE,"Venetian Hotel & Casino3377 Las Vegas Blvd S, Ste 2230The StripLas Vegas, NV 89109",23:00,,FALSE,,,FALSE,8:00,,,FALSE,23:00,no,TRUE,Las Vegas,TRUE,,3,,business,FALSE,,36.1218632,FALSE,,-115.1696491,23:00,,23:00,0:00,TRUE,FALSE,8:00,,,,FALSE,23:00,,,FALSE,,,8:00,loud,,casual,,,[u'The Strip'],,,,
,,,11:30,,,,,11:30,FALSE,TRUE,,,,FALSE,9QSK3jux4ZOOfZGpNaDV0A,,TRUE,11:30,FALSE,"[u'American (New)', u'French', u'Restaurants']",TRUE,11:30,Mariposa,FALSE,,yes_corkage,,,,,3,FALSE,FALSE,,,5,,NV,TRUE,15:00,FALSE,FALSE,,"Neiman Marcus3200 Las Vegas Blvd SThe StripLas Vegas, NV 89109",15:00,,FALSE,,,TRUE,11:30,,,,15:00,,FALSE,Las Vegas,,,4.5,,business,,,36.1277253,FALSE,,-115.1744147,15:00,,15:00,15:00,TRUE,FALSE,,,,,,,,,,,,11:30,,,casual,,,[u'The Strip'],,,,
FALSE,,,,,,,,,,,none,FALSE,,FALSE,AB7oEY5ACn0JUfD114hcow,FALSE,,,,"[u""Women's Clothing"", u""Men's Clothing"", u'Fashion', u'Shopping', u'Department Stores']",,,Neiman Marcus,FALSE,FALSE,,,,,,4,,TRUE,,,65,,NV,TRUE,,,TRUE,,"Fashion Show Mall3200 Las Vegas Blvd S, Ste 100The StripLas Vegas, NV 89109",,,,,,,,,FALSE,,,,TRUE,Las Vegas,TRUE,,4,,business,FALSE,FALSE,36.12825167,,,-115.1731409,,,,,TRUE,FALSE,,,,,FALSE,,FALSE,,,,,,,,,,FALSE,[u'The Strip'],,FALSE,,FALSE
,,,,,,,,,,,,,FALSE,,VIk1kLibvGIIDW5AU8pPPA,,,,,"[u'Arts & Entertainment', u'Art Galleries', u'Shopping']",,,Wyland Galleries,,,,,,,,4,,,,,3,,NV,TRUE,,,,,"3663 Las Vegas Boulevard SThe StripLas Vegas, NV 89109",,,,,,,,,,,,,TRUE,Las Vegas,,,5,,business,,,36.1107323,,,-115.1722365,,,,,FALSE,,,,,,,,,,,,,,,,,,,[u'The Strip'],,,,
,,,,,,,,,,,,,,FALSE,mP4FhqOVm26rnJolERsBlg,,,,,"[u'Fashion', u'Shopping', u'Shoe Stores']",,,David Z Nyc,FALSE,,,,,,,3,,FALSE,,,6,,NV,TRUE,,,FALSE,,"3663 Las Vegas Boulevard SThe StripLas Vegas, NV 89109",,,,,,,,,,,,,TRUE,Las Vegas,,,3,,business,,,36.1107323,,,-115.1722365,,,,,,FALSE,,,,,,,,,,,,,,,,,,[u'The Strip'],,,,
,,,10:00,,,,,10:00,,,,,,FALSE,8T_vEG6AoAYOCDw5W8Pi7w,,,10:00,,[u'Shopping'],,10:00,Sanrio,FALSE,,,,,,,2,,TRUE,,,23,,NV,TRUE,21:00,,TRUE,,"3200 Las Vegas Blvd SThe StripLas Vegas, NV 89109",21:00,,,,,,10:00,,,,21:00,,TRUE,Las Vegas,TRUE,,4,,business,,,36.1277253,,,-115.1744147,21:00,,21:00,21:00,,FALSE,11:00,,,,,19:00,,,,,,10:00,,,,,,[u'The Strip'],,,,
FALSE,,,11:00,,,,,11:00,FALSE,FALSE,full_bar,FALSE,,FALSE,q35bospqfYhJfMsqE79NvA,FALSE,,11:00,FALSE,"[u'Chinese', u'Restaurants']",TRUE,11:00,Dragon Noodle Co.,FALSE,FALSE,,,,,,2,FALSE,TRUE,,,200,,NV,TRUE,22:30,FALSE,FALSE,TRUE,"Monte Carlo Resort & Casino3770 Las Vegas Blvd SThe StripLas Vegas, NV 89109",22:30,,FALSE,,,TRUE,11:00,,FALSE,FALSE,22:30,no,TRUE,Las Vegas,TRUE,,3,,business,FALSE,FALSE,36.105289,TRUE,,-115.174037,22:30,,22:30,22:30,TRUE,FALSE,11:00,,,,FALSE,22:30,TRUE,,,,,11:00,average,,casual,,TRUE,[u'The Strip'],,FALSE,,FALSE
,,,,,,,,,FALSE,FALSE,full_bar,,,,KTAQQKnft5CBMd2pW-xbBw,,,,FALSE,"[u'Restaurants', u'Italian']",TRUE,,Market City Caffe,,,,,,,,2,FALSE,,,,11,,NV,TRUE,,FALSE,,TRUE,"3770 Las Vegas Blvd SThe StripLas Vegas, NV 89109",,,FALSE,,,FALSE,,,,FALSE,,,TRUE,Las Vegas,TRUE,,3.5,,business,,,36.1043329,FALSE,,-115.17601,,,,,TRUE,,,,,,FALSE,,,,,,,,,,casual,,TRUE,[u'The Strip'],,,,
,,,,,,,,,,,,,,FALSE,VYOndX7TKmJwbMolmmOqJw,,,,,"[u""Women's Clothing"", u'Fashion', u'Shopping']",,,Betsey Johnson,FALSE,,,,,,,3,,FALSE,,,7,,NV,TRUE,,,FALSE,,"3663 Las Vegas BlvdDesert Passage at AladdinThe StripLas Vegas, NV 89109",,,,,,,,,,,,,FALSE,Las Vegas,,,4.5,,business,,,36.1107323,,,-115.1722365,,,,,,FALSE,,,,,,,,,,,,,,,,,,[u'The Strip'],,,,
,,,,,,,,,,,,,,,Ipokf_0v2tYVo62-rGRNSQ,,,,,"[u'Hotels & Travel', u'Arts & Entertainment', u'Casinos', u'Event Planning & Services', u'Hotels']",,,Westward Ho Hotel & Casino,,,,,,,,1,,,,,4,,NV,TRUE,,,,,"2900 Las Vegas Blvd SThe StripLas Vegas, NV 89109",,,,,,,,,,,,,FALSE,Las Vegas,,,3.5,,business,,,36.1360584,,,-115.1624608,,,,,FALSE,,,,,,,,,,,,,,,,,,,[u'The Strip'],,,,
,,,9:45,,,,,9:45,,,,,,,CPVipBqeuxWt8UzskKnDWg,,,9:45,,"[u'Active Life', u'Skydiving']",,9:45,Vegas Indoor Skydiving,,,,,,,,,,,,,124,,NV,TRUE,20:00,,,,"200 Convention Center DrThe StripLas Vegas, NV 89109",20:00,,,,,,9:45,,,,20:00,,TRUE,Las Vegas,TRUE,,4.5,,business,,,36.132682,,,-115.161531,20:00,,20:00,20:00,TRUE,,9:45,,,,,20:00,,,,,,9:45,,,,,,[u'The Strip'],,,,
,,,10:00,,,,,10:00,,,,,,FALSE,K6GtF1UpU49Oe3JhCtLuwg,,,10:00,,"[u""Women's Clothing"", u'Department Stores', u'Fashion', u'Shopping', u""Men's Clothing""]",,10:00,Macy's,FALSE,,,,,,,2,,TRUE,,,81,,NV,TRUE,21:00,,FALSE,,"Fashion Show Mall3200 Las Vegas Blvd SThe StripLas Vegas, NV 89109",21:00,,,,,,9:00,,,,21:00,,TRUE,Las Vegas,TRUE,,3.5,,business,,,36.127307,,,-115.174568,21:00,,21:00,21:00,,FALSE,11:00,,,,,19:00,,,,,,10:00,,,,,,[u'The Strip'],FALSE,,,
FALSE,,,,,,,,,FALSE,FALSE,none,FALSE,,FALSE,POEsTJBWFSSdWWR9PVLACg,FALSE,,,FALSE,"[u'Food', u'Desserts', u'Coffee & Tea', u'Cafes', u'Restaurants']",FALSE,,Nestle Toll House Cafe by Chip,FALSE,FALSE,,,,,,1,FALSE,FALSE,,,21,,NV,TRUE,,FALSE,FALSE,TRUE,"3663 S Las Vegas BlvdSte 96The StripLas Vegas, NV 89109",,,TRUE,,,FALSE,,,FALSE,FALSE,,no,TRUE,Las Vegas,,,3.5,,business,FALSE,FALSE,36.1107323,FALSE,,-115.1722365,,,,,TRUE,FALSE,,,,,FALSE,,FALSE,,,,,,average,,casual,,TRUE,[u'The Strip'],,FALSE,,FALSE
,,,,,,,,,,,,,,,vQ7s6H1LkgHPZfVc8XeWHw,,,,,"[u'Fashion', u'Shopping']",,,Tommy Bahama-Las Vegas Fashion Show,,,,,,,,,,,,,3,,NV,,,,,,"3200 Las Vegas Boulevard SSuite 600The StripLas Vegas, NV 89109",,,,,,,,,,,,,TRUE,Las Vegas,,,3,,business,,,36.1277253,,,-115.1744147,,,,,,,,,,,,,,,,,,,,,,,,[u'The Strip'],,,,
,,,10:00,,,,,10:00,,,,,FALSE,FALSE,_XBbMvsOL2evHkQROD9zBg,,,10:00,,"[u'Leather Goods', u'Fashion', u'Shopping', u'Accessories', u'Watches']",,10:00,Montblanc,FALSE,,,,,,,4,,FALSE,,,12,,NV,TRUE,12:00,,FALSE,,"3500 Las Vegas Boulevard SouthSte# L-1The StripLas Vegas, NV 89109",23:00,,,,,,10:00,,,,23:00,,TRUE,Las Vegas,,,4.5,,business,,,36.1190372,,,-115.176005,23:00,,23:00,12:00,,FALSE,10:00,,,,,23:00,,,,,,10:00,,,,,,[u'The Strip'],,,,
,,,,,,,,,,,,,,FALSE,QV4w8wwDUTAmEsa-lCt7GQ,,,,,"[u'Shopping', u'Luggage']",,,Louis Vuitton,FALSE,,,,,,,4,,TRUE,,,74,,NV,TRUE,,,FALSE,,"3500 Las Vegas Blvd SSte B15The StripLas Vegas, NV 89109",,,,,,,,,,,,,TRUE,Las Vegas,TRUE,,3.5,,business,,,36.1190372,,,-115.176005,,,,,,FALSE,,,,,,,,,,,,,,,,,,[u'The Strip'],,,,
,,,10:00,,,,,10:00,,,,,,FALSE,e5s9P8dnw_EiifwsH5D1tg,,,10:00,,"[u'Hats', u'Fashion', u'Shopping', u'Accessories']",,10:00,Hattitude,FALSE,,,,,,,3,,TRUE,,,14,,NV,TRUE,23:00,,FALSE,,"3663 Las Vegas Blvd SThe StripLas Vegas, NV 89109",23:00,,,,,,10:00,,,,23:00,,TRUE,Las Vegas,TRUE,,4,,business,,,36.1107323,,,-115.1722365,23:00,,23:00,23:00,,FALSE,10:00,,,,,23:00,,,,,,10:00,,,,,,[u'The Strip'],,,,
FALSE,,,16:30,,,,FALSE,16:30,FALSE,FALSE,full_bar,FALSE,,TRUE,1bJjWGYip-V2PGj4VIwbiQ,FALSE,FALSE,16:30,FALSE,"[u'Restaurants', u'Italian']",TRUE,16:30,Battista's Hole In the Wall,FALSE,FALSE,yes_free,,,,,2,FALSE,FALSE,,,629,,NV,TRUE,22:30,FALSE,FALSE,TRUE,"4041 Linq LnThe StripLas Vegas, NV 89109",22:30,,FALSE,,,TRUE,16:30,,FALSE,FALSE,22:30,no,TRUE,Las Vegas,TRUE,,3.5,,business,FALSE,FALSE,36.115471,TRUE,,-115.1679198,22:30,,22:30,22:30,TRUE,FALSE,16:30,,,,FALSE,22:30,TRUE,,,,,16:30,average,,casual,,TRUE,[u'The Strip'],,FALSE,,FALSE
,,,,,,,,,,,,,,FALSE,d-iWjHjrEnBREyjArQZ1hQ,,,,,"[u'Food', u'Specialty Food']",,,Godiva Chocolatier #344,FALSE,,,,,,,2,,FALSE,,,18,,NV,TRUE,,,FALSE,,"3377 Las Vegas Boulevard SThe StripLas Vegas, NV 89109",,,,,,,,,,,,,TRUE,Las Vegas,,,3.5,,business,,,36.1218632,,,-115.1696491,,,,,,FALSE,,,,,,,,,,,,,,,,,,[u'The Strip'],,,,
,,,,,,,,,,,,,,FALSE,JMdWqq1tLYh9fIM8uppDSg,,,,,"[u""Men's Clothing"", u'Fashion', u'Shopping']",,,Pal Zileri,FALSE,,,,,,,3,,FALSE,,,4,,NV,TRUE,,,FALSE,,"3377 Las Vegas Blvd SThe StripLas Vegas, NV 89109",,,,,,,,,,,,,TRUE,Las Vegas,,,5,,business,,,36.122632,,,-115.171153,,,,,,FALSE,,,,,,,,,,,,,,,,,,[u'The Strip'],,,,
,,,,,,,,,,,,,,FALSE,8hHoyyZIsWlQf8X3tYa-4g,,,,,"[u'Department Stores', u'Fashion', u'Shopping']",,,ABC Stores,FALSE,,,,,,,1,,TRUE,,,45,,NV,TRUE,,,FALSE,,"Fashion Show Mall3200 Las Vegas Blvd SThe StripLas Vegas, NV 89109",,,,,,,,,,,,,TRUE,Las Vegas,TRUE,,4,,business,,,36.12721128,,,-115.1712461,,,,,,FALSE,,,,,,,,,,,,,,,,,,[u'The Strip'],,,,
FALSE,,,,,,,,,FALSE,FALSE,none,FALSE,,FALSE,MlzFZFBm6xhW_eHTTEM3uA,FALSE,,,FALSE,"[u'Chinese', u'Restaurants']",FALSE,,Manchu Wok,FALSE,FALSE,,,,,,2,FALSE,FALSE,,,15,,NV,TRUE,,FALSE,FALSE,TRUE,"3755 Las Vegas Blvd SThe StripLas Vegas, NV 89109",,,FALSE,,,FALSE,,,FALSE,FALSE,,no,TRUE,Las Vegas,,,1.5,,business,FALSE,FALSE,36.105762,FALSE,,-115.172213,,,,,TRUE,FALSE,,,,,FALSE,,FALSE,,,,,,loud,,casual,,TRUE,[u'The Strip'],,FALSE,,FALSE
,,,,,,,,,,,,,,FALSE,sri5MjmgNtwCEDP627F03w,,,,,"[u""Women's Clothing"", u'Fashion', u'Shopping']",,,White House Black Market,FALSE,,,,,,,3,,TRUE,,,7,,NV,TRUE,,,FALSE,,"3663 Las Vegas Blvd South, Ste 340Miracle Mile ShopsThe StripLas Vegas, NV 89109",,,,,,,,,,,,,TRUE,Las Vegas,,,4.5,,business,,,36.1107323,,,-115.1722365,,,,,,FALSE,,,,,,,,,,,,,,,,,,[u'The Strip'],,,,
,,,,,,,,,,,,,,FALSE,8WNAIF-iaObqdQkshWVnUQ,,,,,"[u'Kitchen & Bath', u'Shopping', u'Home & Garden']",,,Sur La Table,FALSE,,,,,,,3,,TRUE,,,7,,NV,TRUE,,,FALSE,,"3663 Las Vegas Blvd SSte H63The StripLas Vegas, NV 89109",,,,,,,,,,,,,FALSE,Las Vegas,TRUE,,4.5,,business,,,36.1107323,,,-115.1722365,,,,,,FALSE,,,,,,,,,,,,,,,,,,[u'The Strip'],,,,
,,,9:00,,,,,9:00,,,,,,FALSE,q5ZoC_dCzS9fkf01v_nCTQ,,,9:00,,"[u'Food', u'Ice Cream & Frozen Yogurt', u'Desserts']",,9:00,Ben & Jerry's,FALSE,,,,,,,1,,TRUE,,,25,,NV,TRUE,0:00,,FALSE,,"3663 Las Vegas BlvdSte 520The StripLas Vegas, NV 89109",23:00,,,,,,9:00,,,,23:00,no,TRUE,Las Vegas,TRUE,,3,,business,,,36.1107323,,,-115.1722365,23:00,,23:00,0:00,,FALSE,9:00,,,,,23:00,,,,,,9:00,,,,,,[u'The Strip'],,,,
,,,,,,,,,,,,,,,oafKpe4_rXcW_-KSjB3Ruw,,,,,"[u'Shopping', u'Cosmetics & Beauty Supply', u'Makeup Artists', u'Beauty & Spas']",,,Clinique,,,,,,,,2,,,,,3,,NV,TRUE,,,,,"3663 Las Vegas Blvd Sste 50The StripLas Vegas, NV 89109",,,,,,,,,,,,,TRUE,Las Vegas,,,4,,business,,,36.1107323,,,-115.1722365,,,,,,,,,,,,,,,,,,,,,,,,[u'The Strip'],,,,
TRUE,,,,,,,,,FALSE,FALSE,full_bar,FALSE,,TRUE,22xuKtFKYUXhTbIjkxGFQw,FALSE,,,FALSE,"[u'Ethiopian', u'Restaurants']",TRUE,,Meskerem Ethiopian Restaurant & Market,FALSE,FALSE,,,,,,1,FALSE,FALSE,,,53,,NV,TRUE,,FALSE,FALSE,TRUE,"252 Convention Center DrThe StripLas Vegas, NV 89109",,,FALSE,,,TRUE,,,FALSE,FALSE,,no,FALSE,Las Vegas,,,4,,business,,FALSE,36.1334453,TRUE,,-115.1602109,,,,,TRUE,FALSE,,,,,TRUE,,TRUE,,,,,,average,,casual,,TRUE,[u'The Strip'],,FALSE,,FALSE
,,,,,,,,,,,,,,,lxA8cHkat2HWU4fKfqebeg,,,,,"[u""Women's Clothing"", u'Fashion', u'Shopping', u'Accessories']",,,Parallel,,,,,,,,2,,,,,7,,NV,TRUE,,,,,"3663 Las Vegas Blvd SSte 80The StripLas Vegas, NV 89109",,,,,,,,,,,,,TRUE,Las Vegas,,,4,,business,,,36.1107323,,,-115.1722365,,,,,,,,,,,,,,,,,,,,,,,,[u'The Strip'],,,,
,,,,,,,,,,,,,,FALSE,9ge-pnhklG8ZUQP3FjIf1A,,,,,"[u""Women's Clothing"", u'Fashion', u'Shopping', u'Accessories']",,,Herve Leger,FALSE,,,,,,,4,,FALSE,,,18,,NV,TRUE,,,TRUE,,"3663 Las Vegas Blvd SSte 120The StripLas Vegas, NV 89109",,,,,,,,,,,,,TRUE,Las Vegas,TRUE,,4.5,,business,,,36.11786748,,,-115.1748075,,,,,,FALSE,,,,,,,,,,,,,,,,,,[u'The Strip'],,,,
,,,,,,,,,,,,,,,i2p6B6YPdh1SUyRlcGALaQ,,,,,"[u'Hotels & Travel', u'Arts & Entertainment', u'Casinos', u'Event Planning & Services', u'Hotels']",,,Stardust Resort & Casino,,,,,,,,1,,,,,13,,NV,,,,,,"3000 Las Vegas Blvd SThe StripLas Vegas, NV 89109",,,,,,,,,,,,,FALSE,Las Vegas,,,3,,business,,,36.135534,,,-115.166527,,,,,FALSE,,,,,,,,,,,,,,,,,,,[u'The Strip'],,,,
,,,,,,,,,,,,,FALSE,FALSE,9OkxACxvdPbG9NPuQirdJQ,,,,,"[u'Shopping', u'Jewelry', u'Home & Garden', u'Home Decor']",,,Swarovski Gallery Store,FALSE,,,,,,,3,,TRUE,,,5,,NV,TRUE,,,FALSE,,"3663 Las Vegas Blvd SThe StripLas Vegas, NV 89109",,,,,,,,,,,,,TRUE,Las Vegas,,,4,,business,,,36.1107323,,,-115.1722365,,,,,,FALSE,,,,,,,,,,,,,,,,,,[u'The Strip'],,,,
,,,10:00,,,,,10:00,,,,,FALSE,TRUE,zxo9nZwhlW1ZM7OUJP_1ag,,,10:00,,"[u'Optometrists', u'Health & Medical', u'Shopping', u'Eyewear & Opticians']",,10:00,LensCrafters,FALSE,,,,,,,4,,FALSE,,,14,,NV,TRUE,21:00,,FALSE,,"3200 Las Vegas Blvd SSte 1620The StripLas Vegas, NV 89109",21:00,,,,,,10:00,,,,21:00,,TRUE,Las Vegas,,,3.5,,business,,,36.127457,,,-115.173819,21:00,,21:00,21:00,,FALSE,10:00,,,,,19:00,,,,,,10:00,,,,,,[u'The Strip'],,,,
,,,10:00,,,,,10:00,,,,,FALSE,FALSE,0xhTt6jw8O5kD7aG5-KmcQ,,,10:00,,"[u'Local Services', u'Shopping', u'Jewelry', u'Watches', u'Watch Repair']",,10:00,Tourneau,FALSE,,,,,,,4,,TRUE,,,48,,NV,TRUE,12:00,,FALSE,,"The Forum Shops at Caesars3500 Las Vegas Blvd SThe StripLas Vegas, NV 89109",23:00,,,,,,10:00,,,,23:00,,TRUE,Las Vegas,TRUE,,3.5,,business,,,36.1190372,,,-115.1732186,23:00,,23:00,12:00,,FALSE,10:00,,,,,23:00,,,,,,10:00,,,,,,[u'The Strip'],,,,
,,,10:00,,,,,10:00,,,,,,FALSE,Jsaz9wVIH51GWkX712XilQ,,,10:00,,"[u""Women's Clothing"", u""Men's Clothing"", u'Fashion', u'Shopping', u'Accessories']",,10:00,Fendi,FALSE,,,,,,,4,,FALSE,,,3,,NV,TRUE,0:00,,FALSE,,"Forum Shops3500 S Las Vegas BlvdThe StripLas Vegas, NV 89109",23:00,,,,,,10:00,,,,23:00,,TRUE,Las Vegas,,,5,,business,,,36.127251,,,-115.168338,23:00,,23:00,0:00,,FALSE,10:00,,,,,23:00,,,,,,10:00,,,,,,[u'The Strip'],,,,
,,,,,,,,,,,,,,FALSE,K8cDNPcdJLQ3oGvPm29czQ,,,,,"[u""Women's Clothing"", u""Men's Clothing"", u'Fashion', u'Shopping', u'Accessories']",,,D & G Dolce & Gabbana,FALSE,,,,,,,4,,FALSE,,,7,,NV,TRUE,,,FALSE,,"3500 Las Vegas Blvd SThe StripLas Vegas, NV 89109",,,,,,,,,,,,,FALSE,Las Vegas,TRUE,,4.5,,business,,,36.1190372,,,-115.176005,,,,,,FALSE,,,,,,,,,,,,,,,,,,[u'The Strip'],,,,
,,,10:00,,,,,10:00,,,,,,FALSE,QGHd9Kg-uKPzrpNeOFwmFA,,,10:00,,"[u'Leather Goods', u""Men's Clothing"", u""Women's Clothing"", u'Fashion', u'Shopping']",,10:00,Gucci,FALSE,,,,,,,4,,TRUE,,,39,,NV,TRUE,0:00,,FALSE,,"3600 Las Vegas Blvd SouthThe StripLas Vegas, NV 89109",0:00,,,,,,10:00,,,,0:00,,TRUE,Las Vegas,TRUE,,4,,business,,,36.114305,,,-115.173865,0:00,,0:00,0:00,,FALSE,10:00,,,,,0:00,,,,,,10:00,,,,,,[u'The Strip'],,,,
,,,10:00,,,,,10:00,,,,,FALSE,FALSE,reb4YA9Vqw6Xm1PBQyuKHA,,,10:00,,"[u'Local Services', u'Shopping', u'Jewelry', u'Watches', u'Watch Repair']",,10:00,Ben Bridge Jeweler,FALSE,,,,,,,4,,TRUE,,,11,,NV,TRUE,21:00,,FALSE,,"Fashion Show Mall3200 Las Vegas Blvd S, Ste 1490The StripLas Vegas, NV 89109",21:00,,,,,,10:00,,,,21:00,,TRUE,Las Vegas,,,4.5,,business,,,36.1272241,,,-115.1715512,21:00,,21:00,21:00,,FALSE,11:00,,,,,19:00,,,,,,10:00,,,,,,[u'The Strip'],,,,
FALSE,,,11:00,,,,FALSE,11:00,FALSE,TRUE,full_bar,FALSE,,FALSE,TwxHMCcRdF_CQb_EZ6kPQQ,TRUE,FALSE,11:00,FALSE,"[u'Restaurants', u'Italian']",TRUE,11:00,Canaletto,FALSE,FALSE,yes_free,,,,,2,FALSE,TRUE,,,418,,NV,TRUE,0:00,FALSE,TRUE,FALSE,"The Venetian3355 Las Vegas Blvd SThe StripLas Vegas, NV 89109",23:00,,FALSE,,,TRUE,11:00,,FALSE,FALSE,23:00,no,TRUE,Las Vegas,TRUE,,3.5,,business,FALSE,FALSE,36.121176,TRUE,,-115.169651,23:00,,23:00,0:00,TRUE,FALSE,11:00,,,,FALSE,23:00,FALSE,,,,,11:00,average,,casual,,TRUE,[u'The Strip'],,FALSE,,FALSE
TRUE,,TRUE,0:00,,,,,0:00,,FALSE,full_bar,FALSE,,TRUE,6RGD8kxrLwW1PztxZIPXlQ,FALSE,,0:00,,"[u'Dive Bars', u'Bars', u'Nightlife']",,0:00,Stage Door,FALSE,FALSE,,,FALSE,,,1,,FALSE,,FALSE,146,,NV,FALSE,0:00,,FALSE,,"4000 Audrie StThe StripLas Vegas, NV 89109",0:00,,,FALSE,,,0:00,,FALSE,,0:00,,TRUE,Las Vegas,TRUE,,4.5,,business,,FALSE,36.11533148,,FALSE,-115.1684652,0:00,,0:00,0:00,,FALSE,0:00,,FALSE,,TRUE,0:00,FALSE,,,,,0:00,average,yes,,,TRUE,[u'The Strip'],,FALSE,TRUE,FALSE
,,,,,,,,,,,,,FALSE,,xkDRS3fnMgiYY-CVfRtJIw,,,,,"[u'Art Galleries', u'Arts & Entertainment', u'Flowers & Gifts', u'Shopping']",,,Ripa De Monti Venetian Glass,,,,,,,,,,,,,5,,NV,TRUE,,,,,"3355 Las Vegas Blvd SThe StripLas Vegas, NV 89109",,,,,,,,,,,,,TRUE,Las Vegas,,,4.5,,business,,,36.1214517,,,-115.1696112,,,,,FALSE,,,,,,,,,,,,,,,,,,,[u'The Strip'],,,,
,,,,,,,,,,,,,,,HZ18PR5eqzSNmpPDc2S07w,,,,,"[u'Arts & Crafts', u'Shopping']",,,Il Prato,,,,,,,,2,,,,,8,,NV,,,,,,"3355 Las Vegas Boulevard SThe StripLas Vegas, NV 89109",,,,,,,,,,,,,TRUE,Las Vegas,,,4,,business,,,36.1214517,,,-115.1696112,,,,,,,,,,,,,,,,,,,,,,,,[u'The Strip'],,,,
,,,9:00,,TRUE,FALSE,,9:00,,,,,FALSE,FALSE,o62u8774weMfxYM5yZiCaQ,,,9:00,,"[u'Hair Salons', u'Beauty & Spas']",,9:00,Regis Salon,TRUE,,,TRUE,,,,2,,TRUE,,,28,TRUE,NV,TRUE,21:00,,TRUE,,"3200 Las Vegas Blvd S Ste 1660Fashion Show MallThe StripLas Vegas, NV 89109",21:00,TRUE,,,,,9:00,,,,21:00,,TRUE,Las Vegas,TRUE,,3.5,,business,,,36.127779,,,-115.172462,21:00,TRUE,21:00,21:00,TRUE,FALSE,11:00,,,,,19:00,,TRUE,,,,9:00,,,,TRUE,,[u'The Strip'],,,,
,,,10:00,,,,,10:00,,,,,,,H--0T0k-AjKJAQsN3X74Fw,,,10:00,,"[u'Fashion', u'Shopping']",,10:00,Armani Exchange,,,,,,,,3,,,,,8,,NV,TRUE,0:00,,,,"Forum Shops at Caesars3500 Las Vegas Blvd SThe StripLas Vegas, NV 89109",23:00,,,,,,10:00,,,,23:00,,TRUE,Las Vegas,FALSE,,4.5,,business,,,36.1190372,,,-115.176005,23:00,,23:00,0:00,,,10:00,,,,,23:00,,,,,,10:00,,,,,,[u'The Strip'],,,,
,,,,,,,,,,,,,,FALSE,5Q4ijCmJHfOXakelsovd_Q,,,,,"[u'Department Stores', u'Fashion', u'Shopping']",,,Dillard's Department Store,FALSE,,,,,,,2,,TRUE,,,29,,NV,TRUE,,,FALSE,,"Fashion Show Mall3200 Las Vegas Blvd SThe StripLas Vegas, NV 89109",,,,,,,,,,,,,TRUE,Las Vegas,,,3,,business,,,36.127691,,,-115.174345,,,,,,FALSE,,,,,,,,,,,,,,,,,,[u'The Strip'],,,,
,,,10:00,,,,,10:00,,,,,,FALSE,1thjScAbQ6ckY2bDkX8KXQ,,,10:00,,"[u'Fashion', u'Shopping', u'Shoe Stores']",,10:00,Steve Madden,FALSE,,,,,,,3,,TRUE,,,6,,NV,TRUE,21:00,,FALSE,,"Fashion Show Mall3200 Las Vegas Blvd SThe StripLas Vegas, NV 89109",21:00,,,,,,10:00,,,,21:00,,TRUE,Las Vegas,,,2.5,,business,,,36.12738623,,,-115.1698504,21:00,,21:00,21:00,,FALSE,11:00,,,,,19:00,,,,,,10:00,,,,,,[u'The Strip'],,,,
,,,,,,,,,,,,,,,WZYUT3gfKxDf_F6ent_ljA,,,,,"[u'Photographers', u'Event Planning & Services']",,,Cashman Photo Enterprises,,,,,,,,,,,,,13,,NV,TRUE,,,,,"3200 Las Vegas Blvd SThe StripLas Vegas, NV 89109",,,,,,,,,,,,,TRUE,Las Vegas,,,2.5,,business,,,36.1277253,,,-115.1744147,,,,,,,,,,,,,,,,,,,,,,,,[u'The Strip'],,,,
,,,,,,,,,,,,,FALSE,FALSE,YIMRXvVJMI2RYMFDJgjTyA,,,,,"[u'Museums', u'Arts & Entertainment', u'Art Galleries', u'Shopping']",,,The Wynn Collection,FALSE,,,,,,,4,,FALSE,,,4,,NV,TRUE,,,FALSE,,"Wynn3131 Las Vegas Blvd SThe StripLas Vegas, NV 89109",,,,,,,,,,,,,TRUE,Las Vegas,,,4,,business,,,36.12651762,,,-115.1641944,,,,,FALSE,FALSE,,,,,,,,,,,,,,,,,,[u'The Strip'],,,,
TRUE,,TRUE,,,,,,,,TRUE,full_bar,FALSE,,FALSE,u9wjRhUjySkHPa_hG3kFOg,FALSE,,,,"[u'Arts & Entertainment', u'Resorts', u'Casinos', u'Event Planning & Services', u'Hotels & Travel', u'Hotels']",,,Wynn Las Vegas,FALSE,FALSE,,,,,,3,,TRUE,,TRUE,1897,,NV,TRUE,,,TRUE,,"3131 Las Vegas Blvd. SouthThe StripLas Vegas, NV 89109",,,,,,,,,FALSE,,,paid,TRUE,Las Vegas,,,4,,business,,FALSE,36.127684,,TRUE,-115.165905,,,,,FALSE,FALSE,,,TRUE,,TRUE,,FALSE,,,,,,quiet,yes,,,TRUE,[u'The Strip'],,FALSE,,FALSE
,,,,,,,,,,,,,,,Uqt3eC560KXIr4j-RSv4jw,,,,,[],,,Hotel Sands,,,,,,,,,,,,,3,,NV,,,,,,"3355 Las Vegas Blvd SThe StripLas Vegas, NV 89109",,,,,,,,,,,,,FALSE,Las Vegas,,,3.5,,business,,,36.1214517,,,-115.1696112,,,,,,,,,,,,,,,,,,,,,,,,[u'The Strip'],,,,
FALSE,,,,,,,,,FALSE,FALSE,none,FALSE,,FALSE,yP23rR1T5Q3Z33mol141eg,FALSE,,,FALSE,"[u'Fast Food', u'Chicken Wings', u'Restaurants']",FALSE,,Chicken Connection,FALSE,FALSE,,,,,,2,FALSE,FALSE,,,15,,NV,TRUE,,TRUE,FALSE,TRUE,"3200 Las Vegas Boulevard SThe StripLas Vegas, NV 89109",,,FALSE,,,FALSE,,,FALSE,FALSE,,,TRUE,Las Vegas,,,3,,business,TRUE,FALSE,36.1277253,FALSE,,-115.1744147,,,,,TRUE,FALSE,,,,,FALSE,,TRUE,,,FALSE,,,average,,casual,,TRUE,[u'The Strip'],,FALSE,,FALSE
,,,,,,,,,,,,,,,gwWbtAL_v6MdAnDRvWjGpw,,,,,"[u'Shopping', u'Cosmetics & Beauty Supply', u'Beauty & Spas']",,,The Body Shop,,,,,,,,,,,,,4,,NV,,,,,,"3663 Las Vegas Boulevard SThe StripLas Vegas, NV 89109",,,,,,,,,,,,,TRUE,Las Vegas,,,4.5,,business,,,36.1107323,,,-115.1722365,,,,,,,,,,,,,,,,,,,,,,,,[u'The Strip'],,,,
,,,10:00,,,,,10:00,,,,,,FALSE,xqECECmAwrtFPUn-OXCAMw,,,10:00,,"[u""Women's Clothing"", u'Department Stores', u'Fashion', u'Shopping', u'Shoe Stores']",,10:00,Saks Fifth Avenue,FALSE,,,,,,,4,,TRUE,,,40,,NV,TRUE,21:00,,FALSE,,"3200 Las Vegas Blvd SSte 200The StripLas Vegas, NV 89109",21:00,,,,,,10:00,,,,20:00,,TRUE,Las Vegas,TRUE,,3.5,,business,,,36.1274245,,,-115.170815,20:00,,20:00,20:00,,FALSE,12:00,,,,,19:00,,,,,,10:00,,,,,,[u'The Strip'],,,,
,,,10:00,,,,,10:00,,,,,FALSE,FALSE,Se_Nu5gGTQwGMfLEtImU2w,,,10:00,,"[u'Shopping', u'Jewelry']",,10:00,Roman Times,FALSE,,,,,,,4,,TRUE,,,9,,NV,TRUE,0:00,,FALSE,,"3500 Las Vegas Blvd SThe StripLas Vegas, NV 89109",23:00,,,,,,10:00,,,,23:00,,TRUE,Las Vegas,TRUE,,4,,business,,,36.1190372,,,-115.176005,23:00,,23:00,0:00,,FALSE,10:00,,,,,23:00,,,,,,10:00,,,,,,[u'The Strip'],,,,
,,,10:00,,,,,10:00,,,,,FALSE,,Voeh8ZI_t7Cy57jTQiW1ZA,,,10:00,,"[u'Fashion', u'Shopping', u'Jewelry', u'Accessories']",,10:00,Corsa Collections,,,,,,,,4,,,,,9,,NV,TRUE,0:00,,,,"3377 Las Vegas BlvdSte 2390The StripLas Vegas, NV 89109",23:00,,,,,,10:00,,,,23:00,,TRUE,Las Vegas,,,4.5,,business,,,36.1218632,,,-115.1696491,23:00,,23:00,0:00,,,10:00,,,,,23:00,,,,,,10:00,,,,,,[u'The Strip'],,,,
,,,,,,,,,,,,,,TRUE,cjdVDLfbvL88JOGwCpLyvg,,,,,"[u'Food', u'Beer, Wine & Spirits']",,,Strip Liquor,FALSE,,,,,,,2,,FALSE,,,13,,NV,TRUE,,,FALSE,,"3049 Las Vegas Blvd SThe StripLas Vegas, NV 89109",,,,,,,,,,,,,TRUE,Las Vegas,TRUE,,4,,business,,,36.131948,,,-115.164553,,,,,,FALSE,,,,,,,,,,,,,,,,,,[u'The Strip'],,,,
,,,0:00,,,,,0:00,,,,,,,NavcBip2CJFK1yEjnu3HFA,,,0:00,,"[u'Arts & Entertainment', u'Amusement Parks', u'Casinos', u'Event Planning & Services', u'Active Life', u'Hotels & Travel', u'Hotels']",,0:00,Slots A Fun,,,,,,,,1,,,,,113,,NV,TRUE,0:00,,,,"Circus Circus Las Vegas2800 Las Vegas Blvd SThe StripLas Vegas, NV 89109",0:00,,,,,,0:00,,,,0:00,no,TRUE,Las Vegas,,,3,,business,,,36.13673869,,,-115.1630902,0:00,,0:00,0:00,FALSE,,0:00,,,,,0:00,,,,,,0:00,,,,,,[u'The Strip'],,,,
,,,,,,,,,,,,,FALSE,FALSE,jLjs3698_iSxcUL0ztgU_A,,,,,"[u'Barbers', u'Beauty & Spas']",,,Celebrity Club Barber Salon,FALSE,,,,,,,2,,TRUE,,,6,,NV,TRUE,,,FALSE,,"2901 Las Vegas Boulevard SThe StripLas Vegas, NV 89109",,,,,,,,,,,,,FALSE,Las Vegas,,,4,,business,,,36.135382,,,-115.159235,,,,,,FALSE,,,,,,,,,,,,,,,,,,[u'The Strip'],,,,
TRUE,,,0:00,,,,,0:00,TRUE,TRUE,full_bar,FALSE,,FALSE,Zf7fMSe7yuW727JyikdBsg,FALSE,,0:00,FALSE,"[u'Hotels & Travel', u'Arts & Entertainment', u'Casinos', u'Event Planning & Services', u'Hotels']",TRUE,0:00,Riviera Hotel & Casino,FALSE,FALSE,,,,,,2,FALSE,TRUE,,,802,,NV,TRUE,0:00,FALSE,TRUE,FALSE,"2901 Las Vegas Blvd SThe StripLas Vegas, NV 89109",0:00,,FALSE,,,TRUE,0:00,,FALSE,TRUE,0:00,free,FALSE,Las Vegas,TRUE,,2.5,,business,TRUE,FALSE,36.13516356,FALSE,,-115.1621756,0:00,,0:00,0:00,FALSE,FALSE,0:00,,,,TRUE,0:00,FALSE,,,,,0:00,average,,casual,,TRUE,[u'The Strip'],,FALSE,,FALSE
,,,,,,,,,,,,,,FALSE,nPM0YTIBVTWVaUWmhtLkQQ,,,,,"[u'Local Services', u'Dry Cleaning & Laundry']",,,Hudson Cleaners,FALSE,,,,,,,2,,FALSE,,,5,,NV,,,,FALSE,,"252 Convention Center Dr Ste 11The StripLas Vegas, NV 89109",,,,,,,,,,,,,TRUE,Las Vegas,,,2,,business,,,36.1334453,,,-115.1602109,,,,,,FALSE,,,,,,,,,,,,,,,,,,[u'The Strip'],,,,
FALSE,,,,,,,,,FALSE,FALSE,full_bar,FALSE,,FALSE,m6l-NYfSXe1nqxZShVstIg,TRUE,,,FALSE,"[u'American (Traditional)', u'Restaurants']",TRUE,,NASCAR Cafe,FALSE,FALSE,,,,,,2,FALSE,TRUE,,,54,,NV,TRUE,,TRUE,FALSE,TRUE,"2535 Las Vegas Blvd SThe StripLas Vegas, NV 89109",,,FALSE,,,FALSE,,,FALSE,FALSE,,no,FALSE,Las Vegas,TRUE,,2,,business,FALSE,FALSE,36.1423378,FALSE,,-115.1563054,,,,,TRUE,FALSE,,,,,TRUE,,FALSE,,,,,,average,,casual,,TRUE,[u'The Strip'],,FALSE,,FALSE
,,,,,,,,,FALSE,FALSE,none,,,,FTQ1hm8-24_7ou2ILWEyEw,,,,FALSE,"[u'Greek', u'Restaurants']",FALSE,,Greek Island Cafe,,,,,,,,1,FALSE,,,,20,,NV,TRUE,,TRUE,,TRUE,"3200 Las Vegas Blvd SThe StripLas Vegas, NV 89109",,,FALSE,,,FALSE,,,,FALSE,,no,FALSE,Las Vegas,TRUE,,4,,business,FALSE,,36.127754,FALSE,,-115.16775,,,,,TRUE,,,,,,FALSE,,,,,,,,average,,casual,,TRUE,[u'The Strip'],,,,
,,,,,,,,,,,,,,FALSE,OlXLY70GqfNQ9RzWRE9o1w,,,,,"[u'Fashion', u'Shopping', u'Shoe Stores']",,,Shoooz At the Forum,FALSE,,,,,,,3,,FALSE,,,4,,NV,TRUE,,,FALSE,,"3500 Las Vegas Boulevard SThe StripLas Vegas, NV 89109",,,,,,,,,,,,,TRUE,Las Vegas,,,2.5,,business,,,36.1190372,,,-115.176005,,,,,,FALSE,,,,,,,,,,,,,,,,,,[u'The Strip'],,,,
,,,10:00,,,,,10:00,,,,,,FALSE,GjEV7-1f0z4DnrGneGyw7g,,,10:00,,"[u""Women's Clothing"", u""Men's Clothing"", u'Fashion', u'Shopping', u'Accessories']",,10:00,Burberry,FALSE,,,,,,,3,,FALSE,,,16,,NV,TRUE,0:00,,FALSE,,"The Shoppes at the Palazzo3327 Las Vegas Boulevard South, Suite 2754The StripLas Vegas, NV 89109",23:00,,,,,,10:00,,,,23:00,,TRUE,Las Vegas,TRUE,,5,,business,,,36.12955625,,,-115.171051,23:00,,23:00,0:00,,FALSE,10:00,,,,,23:00,,,,,,10:00,,,,,,[u'The Strip'],,,,
,,,,,,,,,,,,,,FALSE,l5ciszJOgqEuvAtxkT8IFg,,,,,"[u'Lingerie', u'Shopping', u'Fashion']",,,Victoria's Secret #1113,FALSE,,,,,,,3,,FALSE,,,9,,NV,TRUE,,,FALSE,,"3663 Las Vegas Boulevard SThe StripLas Vegas, NV 89109",,,,,,,,,,,,,TRUE,Las Vegas,TRUE,,2,,business,,,36.1107323,,,-115.1722365,,,,,,FALSE,,,,,,,,,,,,,,,,,,[u'The Strip'],,,,
,,,,,,,,,,,,,,,Sxe0iCtlNg-oIMbTjymC9Q,,,,,"[u'Shopping', u'Cosmetics & Beauty Supply', u'Beauty & Spas']",,,Aveda Environmental Lifestyle Store,,,,,,,,,,,,,3,,NV,,,,,,"3663 Las Vegas Blvd SThe StripLas Vegas, NV 89109",,,,,,,,,,,,,TRUE,Las Vegas,,,4.5,,business,,,36.1107323,,,-115.1722365,,,,,,,,,,,,,,,,,,,,,,,,[u'The Strip'],,,,
,,,10:00,,,,,10:00,,,,,FALSE,FALSE,RxKroPavD49S_26WXDhJaQ,,,10:00,,"[u'Shopping', u'Cosmetics & Beauty Supply', u'Beauty & Spas']",,10:00,Sephora,FALSE,,,,,,,2,,TRUE,,,98,,NV,TRUE,0:00,,FALSE,,"The Venetian3377 Las Vegas Blvd SThe StripLas Vegas, NV 89109",23:00,,,,,,10:00,,,,23:00,,TRUE,Las Vegas,TRUE,,4,,business,,,36.1218632,,,-115.1696491,23:00,,23:00,0:00,,FALSE,10:00,,,,,23:00,,,,,,10:00,,,,,,[u'The Strip'],,,,
,,,,,,,,,,,,,,,#NAME?,,,,,"[u'Hotels & Travel', u'Event Planning & Services', u'Hotels']",,,Travelodge Las Vegas,,,,,,,,1,,,,,15,,NV,TRUE,,,,,"2830 Las Vegas Blvd SThe StripLas Vegas, NV 89109",,,,,,,,,,,,free,TRUE,Las Vegas,,,1.5,,business,,,36.137679,,,-115.162776,,,,,,,,,,,,,,,,,,,,,,,,[u'The Strip'],,,,
,,,,,,,,,,,,,,,lWntQVlUr9MnRkqIes_aPg,,,,,"[u'Hotels & Travel', u'Event Planning & Services', u'Hotels']",,,Royal Resort,,,,,,,,2,,,,,69,,NV,TRUE,,,,,"99 Convention Ctr DrThe StripLas Vegas, NV 89109",,,,,,,,,,,,paid,TRUE,Las Vegas,,,3,,business,,,36.1319251,,,-115.1626241,,,,,,,,,,,,,,,,,,,,,,,,[u'The Strip'],,,,
,,,10:00,,,,,10:00,,,,,FALSE,FALSE,8CRE0NPTyc99Bt8XP3Qr2g,,,10:00,,"[u'Optometrists', u'Health & Medical', u'Shopping', u'Eyewear & Opticians']",,10:00,Optica,FALSE,,,,,,,4,,FALSE,,,8,,NV,TRUE,21:00,,FALSE,,"Fashion Show Mall3200 Las Vegas Blvd SThe StripLas Vegas, NV 89109",21:00,,,,,,10:00,,,,21:00,,TRUE,Las Vegas,,,3,,business,,,36.1277253,,,-115.1744147,21:00,,21:00,21:00,,FALSE,11:00,,,,,19:00,,,,,,10:00,,,,,,[u'The Strip'],,,,
FALSE,,,,,,,,,FALSE,FALSE,full_bar,FALSE,,FALSE,oZsWYLfvLBJoonvxObDWtw,TRUE,,,FALSE,"[u'Fast Food', u'American (Traditional)', u'Restaurants']",TRUE,,Cheeseburger At the Oasis,FALSE,FALSE,,,,,,2,FALSE,TRUE,,,41,,NV,TRUE,,TRUE,FALSE,TRUE,"3663 Las Vegas Blvd SSte 350The StripLas Vegas, NV 89109",,,FALSE,,,TRUE,,,FALSE,FALSE,,no,TRUE,Las Vegas,TRUE,,2.5,,business,FALSE,FALSE,36.1107323,FALSE,,-115.1722365,,,,,TRUE,FALSE,,,,,TRUE,,TRUE,,,FALSE,,,average,,casual,,TRUE,[u'The Strip'],,FALSE,,FALSE
,,,10:00,,,,,10:00,,,,,,FALSE,1KhQP60LT03BXWaeXejA6g,,,10:00,,"[u""Women's Clothing"", u'Fashion', u'Shopping', u'Accessories']",,10:00,bebe,FALSE,,,,,,,3,,TRUE,,,10,,NV,TRUE,0:00,,FALSE,,"Forum Shops at Caesars3500 S Las Vegas Blvd Ste N11The StripLas Vegas, NV 89109",23:00,,,,,,10:00,,,,23:00,,TRUE,Las Vegas,TRUE,,4,,business,,,36.1184749,,,-115.1755707,23:00,,23:00,0:00,,FALSE,10:00,,,,,23:00,,,,,,10:00,,,,,,[u'The Strip'],,,,
,,,,,,,,,,,,,,,WlPC7CgC0GX5PXYO1NBG8A,,,,,"[u'Hotels & Travel', u'Arts & Entertainment', u'Casinos', u'Event Planning & Services', u'Hotels']",,,Aladdin Hotel & Casino,,,,,,,,,,,,,39,,NV,,,,,,"3667 Las Vegas Blvd SThe StripLas Vegas, NV 89109",,,,,,,,,,,,,FALSE,Las Vegas,,,3.5,,business,,,36.1100629,,,-115.1708909,,,,,,,,,,,,,,,,,,,,,,,,[u'The Strip'],,,,
,,,,,,,,,,,,,,,28Kd8z3d8-H0TrsJZj8Gig,,,,,"[u'Hotels & Travel', u'Event Planning & Services', u'Hotels']",,,Travelodge Las Vegas Center Strip,,,,,,,,1,,,,,33,,NV,TRUE,,,,,"3735 Las Vegas Boulevard SouthThe StripLas Vegas, NV 89109",,,,,,,,,,,,free,TRUE,Las Vegas,,,3,,business,,,36.1069976,,,-115.1713571,,,,,,,,,,,,,,,,,,,,,,,,[u'The Strip'],,,,
FALSE,,,0:00,TRUE,,,FALSE,0:00,TRUE,TRUE,none,FALSE,,TRUE,PPwJTT-eLjapipmyQSgi9A,FALSE,FALSE,0:00,FALSE,"[u'Burgers', u'American (Traditional)', u'Fast Food', u'Restaurants']",FALSE,0:00,Fatburger,FALSE,FALSE,yes_free,,,,,2,FALSE,FALSE,,,489,,NV,TRUE,0:00,FALSE,FALSE,TRUE,"3763 Las Vegas Blvd SThe StripLas Vegas, NV 89019",0:00,,FALSE,,,FALSE,0:00,,FALSE,FALSE,0:00,no,TRUE,Las Vegas,TRUE,,3.5,,business,FALSE,FALSE,36.1052677,FALSE,,-115.1724964,0:00,,0:00,0:00,TRUE,FALSE,0:00,,,,TRUE,0:00,TRUE,,,FALSE,,0:00,average,,casual,,TRUE,[u'The Strip'],,FALSE,,FALSE
,,,9:00,,,,,9:00,,,,,,FALSE,ZgWUM594Yqk52IvBgoIrdA,,,9:00,,"[u'Food', u'Specialty Food', u'Candy Stores', u'Chocolatiers & Shops']",,9:00,M & M's World,FALSE,,,,,,,2,,TRUE,,,563,,NV,TRUE,0:00,,FALSE,,"3785 Las Vegas Blvd SSte 10The StripLas Vegas, NV 89109",0:00,,,,,,9:00,,,,0:00,,TRUE,Las Vegas,TRUE,,3.5,,business,,,36.10185002,,,-115.1725296,0:00,,0:00,0:00,TRUE,FALSE,9:00,,,,,0:00,,,,,,9:00,,,,,,[u'The Strip'],FALSE,,,
FALSE,,,,,,,,,FALSE,TRUE,none,FALSE,,FALSE,O09jXZxh7L2PMC12i6Mt4g,FALSE,,,FALSE,"[u'Hot Dogs', u'Fast Food', u'Restaurants']",FALSE,,Hot Dog On A Stick,FALSE,FALSE,,,,,,1,FALSE,FALSE,,,18,,NV,TRUE,,TRUE,FALSE,TRUE,"3200 Las Vegas Blvd SThe StripLas Vegas, NV 89109",,,FALSE,,,FALSE,,,FALSE,FALSE,,,FALSE,Las Vegas,,,4,,business,TRUE,FALSE,36.1277253,FALSE,,-115.1744147,,,,,TRUE,FALSE,,,,,FALSE,,FALSE,,,FALSE,,,loud,,casual,,TRUE,[u'The Strip'],,FALSE,,FALSE
,,,,,,,,,,,,,,FALSE,28tKkSG536JWTbYpUSsBeQ,,,,,"[u'Fashion', u'Shopping', u'Shoe Stores']",,,Bakers,FALSE,,,,,,,2,,FALSE,,,3,,NV,TRUE,,,FALSE,,"3200 Las Vegas Boulevard SThe StripLas Vegas, NV 89109",,,,,,,,,,,,,TRUE,Las Vegas,TRUE,,3.5,,business,,,36.1277253,,,-115.1744147,,,,,,FALSE,,,,,,,,,,,,,,,,,,[u'The Strip'],,,,
FALSE,,FALSE,1:00,,,,,1:00,TRUE,FALSE,full_bar,FALSE,,FALSE,P3z-tSjqJRMJPQ9fx_5MSQ,FALSE,,,FALSE,"[u'Nightlife', u'Dance Clubs']",TRUE,,Drai's After Hours,FALSE,TRUE,,,FALSE,,,3,FALSE,TRUE,,TRUE,339,,NV,TRUE,9:00,FALSE,TRUE,FALSE,"The Cromwell Las Vegas Resort & Casino3595 Las Vegas Boulevard SouthThe StripLas Vegas, NV 89109",9:00,,FALSE,FALSE,,TRUE,1:00,21plus,FALSE,FALSE,,no,TRUE,Las Vegas,TRUE,,3.5,,business,FALSE,FALSE,36.115018,FALSE,TRUE,-115.17178,,,,9:00,FALSE,FALSE,1:00,,TRUE,,FALSE,9:00,FALSE,,,,,,very_loud,yes,dressy,,TRUE,[u'The Strip'],FALSE,FALSE,FALSE,FALSE
,,,,,,,,,,,,,FALSE,FALSE,gdBzRx0s3iKAXPZ8-t-cKQ,,,,,"[u'Arts & Entertainment', u'Art Galleries', u'Shopping']",,,Centaur Art Galleries,FALSE,,,,,,,4,,TRUE,,,7,,NV,TRUE,,,FALSE,,"3200 Las Vegas BlvdSte 1040The StripLas Vegas, NV 89109",,,,,,,,,,,,,FALSE,Las Vegas,,,3.5,,business,,,36.1277253,,,-115.1744147,,,,,FALSE,FALSE,,,,,,,,,,,,,,,,,,[u'The Strip'],,,,
,,,,,,,,,,,,,FALSE,FALSE,pB8mMZXcTwWAn53Ce2ldpQ,,,,,"[u'Hair Salons', u'Nail Salons', u'Beauty & Spas']",,,Uno Salon,FALSE,,,,,,,3,,FALSE,,,20,,NV,TRUE,,,FALSE,,"3555 S Las Vegas BlvdThe StripLas Vegas, NV 89109",,,,,,,,,,,,,TRUE,Las Vegas,,,3,,business,,,36.1163474,,,-115.1723373,,,,,TRUE,FALSE,,,,,,,,,,,,,,,,,,[u'The Strip'],,,,
,,,,,,,,,,,,,,FALSE,YGB2_7pjgxE65j3AiMJ4SA,,,,,"[u""Women's Clothing"", u'Fashion', u'Shopping', u'Accessories']",,,Guess,FALSE,,,,,,,3,,FALSE,,,3,,NV,TRUE,,,FALSE,,"3500 Las Vegas Blvd S Ste N22The StripLas Vegas, NV 89109",,,,,,,,,,,,,TRUE,Las Vegas,,,3.5,,business,,,36.1190372,,,-115.176005,,,,,,FALSE,,,,,,,,,,,,,,,,,,[u'The Strip'],,,,
,,,0:00,,,,,0:00,,,,,,,YQUi5zzpACd0tgGQtcKyYg,,,0:00,,"[u'Hotels & Travel', u'Event Planning & Services', u'Hotels']",,0:00,Best Western Plus Casino Royale,,,,,,,,1,,,,,257,,NV,TRUE,0:00,,,,"3411 Las Vegas Blvd SThe StripLas Vegas, NV 89109",0:00,,,,,,0:00,,,,0:00,free,TRUE,Las Vegas,,,3.5,,business,,,36.12074038,,,-115.1718042,0:00,,0:00,0:00,FALSE,,0:00,,,,,0:00,,,,,,0:00,,,,,,[u'The Strip'],,,,
,,,,,,,,,,,,,,FALSE,VbQN_S3MCxgKR4pJl7dz3Q,,,,,"[u""Women's Clothing"", u'Fashion', u'Shopping', u'Accessories']",,10:00,The Limited,FALSE,,,,,,,1,,FALSE,,,4,,NV,,,,FALSE,,"3200 Las Vegas Blvd SThe StripLas Vegas, NV 89109",,,,,,,,,,,,,TRUE,Las Vegas,,,4.5,,business,,,36.1277253,,,-115.1744147,21:00,,,,,FALSE,11:00,,,,,19:00,,,,,,,,,,,,[u'The Strip'],,,,
,,,,,,,,,,,,,,FALSE,ImlcAH8NDnF5pPkcoTjZcw,,,,,"[u""Women's Clothing"", u""Men's Clothing"", u'Fashion', u'Shopping']",,,Boutique Talulah,FALSE,,,,,,,4,,FALSE,,,8,,NV,TRUE,,,FALSE,,"3200 Las Vegas Blvd SSte 1145The StripLas Vegas, NV 89109",,,,,,,,,,,,,TRUE,Las Vegas,,,4.5,,business,,,36.1277253,,,-115.1744147,,,,,,FALSE,,,,,,,,,,,,,,,,,,[u'The Strip'],,,,
FALSE,,,,,,,,,FALSE,FALSE,beer_and_wine,FALSE,,FALSE,objtwN6N5W2lvOzkFxfyaA,FALSE,,,FALSE,"[u'Italian', u'Pizza', u'Restaurants']",FALSE,,Sbarro,FALSE,FALSE,,,,,,1,FALSE,TRUE,,,29,,NV,TRUE,,TRUE,FALSE,TRUE,"Ballys3645 Las Vegas Blvd SThe StripLas Vegas, NV 89109",,,FALSE,,,FALSE,,,FALSE,FALSE,,free,TRUE,Las Vegas,,,2.5,,business,FALSE,FALSE,36.1142773,FALSE,,-115.1709763,,,,,TRUE,FALSE,,,,,TRUE,,TRUE,,,,,,average,,casual,,TRUE,[u'The Strip'],,FALSE,,FALSE
,,,,,,,,,,,,,,,LeZvUoCSpJ55pYL25aMozQ,,,,,"[u'Arts & Entertainment', u'Casinos', u'Event Planning & Services', u'Hotels & Travel', u'Hotels', u'Restaurants']",,,Barbary Coast Hotel & Casino,,,,,,,,1,,,,,22,,NV,,,,,,"3595 Las Vegas Blvd SThe StripLas Vegas, NV 89109",,,,,,,,,,,,,FALSE,Las Vegas,,,4,,business,,,36.1149405,,,-115.1720257,,,,,FALSE,,,,,,,,,,,,,,,,,,,[u'The Strip'],,,,
,,,10:00,,,,,10:00,,,,,FALSE,FALSE,R-ou0-CBDtkatvTuBHl4mQ,,,10:00,,"[u'Bridal', u'Shopping', u'Jewelry', u'Watches']",,10:00,Berger & Son Fine Jewelers,FALSE,,,,,,,4,,TRUE,,,6,,NV,TRUE,21:00,,TRUE,,"Fashion Show Mall3200 Las Vegas Blvd S, Ste 1165The StripLas Vegas, NV 89109",21:00,,,,,,10:00,,,,21:00,,TRUE,Las Vegas,TRUE,,3.5,,business,,,36.12718714,,,-115.1713554,21:00,,21:00,21:00,,FALSE,11:00,,,,,19:00,,,TRUE,,,10:00,,,,,,[u'The Strip'],,,,
,,,,,,,,,,,,,,,NEJM9JCdchw0FKh5KcwVyA,,,,,"[u'Shopping', u'Eyewear & Opticians']",,,Davante Forum Shops,,,,,,,,3,,,,,3,,NV,TRUE,,,,,"3500 Las Vegas Boulevard SThe StripLas Vegas, NV 89109",,,,,,,,,,,,,TRUE,Las Vegas,,,4,,business,,,36.1190372,,,-115.176005,,,,,,,,,,,,,,,,,,,,,,,,[u'The Strip'],,,,
,,,,,,,,,,TRUE,,,,FALSE,0wVyfmSnMGQ91p_htNMKqg,,,,,"[u'Food', u'Coffee & Tea']",,,Starbucks,FALSE,,,,,,,1,,FALSE,,,3,,NV,TRUE,,,FALSE,,"3049 Las Vegas Blvd SThe StripLas Vegas, NV 89109",,,,,,,,,,,,free,FALSE,Las Vegas,,,2.5,,business,,,36.1314967,,,-115.1645622,,,,,,FALSE,,,,,,,,,,,,,,,,,,[u'The Strip'],,,,
,,,,,,,,,,,,,,FALSE,vLEKoS38pwCXkeI2cTnDng,,,,,"[u""Women's Clothing"", u'Fashion', u'Shopping', u'Accessories']",,,Christian Dior Boutique,FALSE,,,,,,,4,,TRUE,,,7,,NV,TRUE,,,TRUE,,"3500 Las Vegas Blvd SThe StripLas Vegas, NV 89109",,,,,,,,,,,,,FALSE,Las Vegas,TRUE,,2.5,,business,,,36.1190372,,,-115.176005,,,,,,FALSE,,,,,,,,,,,,,,,,,,[u'The Strip'],,,,
,,,,,,,,,,,,,,,eL_V5IHOmzS20driM_23yA,,,,,"[u'Hotels & Travel', u'Event Planning & Services', u'Hotels']",,,Gold Castle Excalibur,,,,,,,,3,,,,,5,,NV,TRUE,,,,,"3850 Las Vegas Blvd SThe StripLas Vegas, NV 89109",,,,,,,,,,,,free,TRUE,Las Vegas,,,1.5,,business,,,36.098909,,,-115.175557,,,,,,,,,,,,,,,,,,,,,,,,[u'The Strip'],,,,
,,,8:00,,,,,8:00,,,,,,,INRo-traxk5P05-Q9JLr8w,,,8:00,,"[u'Active Life', u'Arcades', u'Arts & Entertainment', u'Amusement Parks']",,8:00,Coney Island Emporium,,,,,,,,,,,,,33,,NV,,1:00,,,,"New York-New York Las Vegas Hotel & Casino3790 Las Vegas Blvd SThe StripLas Vegas, NV 89109",1:00,,,,,,8:00,,,,1:00,,TRUE,Las Vegas,,,3,,business,,,36.1030009,,,-115.1735161,1:00,,1:00,1:00,TRUE,,8:00,,,,,1:00,,,,,,8:00,,,,,,[u'The Strip'],,,,
FALSE,,,9:00,,,,FALSE,9:00,FALSE,TRUE,full_bar,FALSE,,FALSE,JkuXXDySMl5fF0hwmLxNCA,FALSE,FALSE,9:00,FALSE,"[u'Burgers', u'American (Traditional)', u'Barbeque', u'Restaurants']",TRUE,9:00,Harley-Davidson Las Vegas Cafe,FALSE,FALSE,yes_free,,,,,2,FALSE,TRUE,,,254,,NV,TRUE,0:00,TRUE,FALSE,TRUE,"3725 Las Vegas Blvd SThe StripLas Vegas, NV 89109",23:00,,FALSE,,,TRUE,9:00,,FALSE,FALSE,23:00,no,TRUE,Las Vegas,TRUE,,3,,business,FALSE,FALSE,36.107729,FALSE,,-115.1723215,23:00,,23:00,0:00,TRUE,FALSE,9:00,,,,TRUE,23:00,TRUE,,,FALSE,,9:00,average,,casual,,TRUE,[u'The Strip'],FALSE,FALSE,,FALSE
FALSE,,,7:00,,,,,7:00,FALSE,FALSE,full_bar,FALSE,,FALSE,HT-3izSFU8ZMazvSqrADyw,FALSE,,7:00,TRUE,"[u'Sushi Bars', u'Asian Fusion', u'Chinese', u'Restaurants']",TRUE,7:00,Chin Chin,FALSE,FALSE,,,,,,2,FALSE,FALSE,,,350,,NV,TRUE,1:00,FALSE,TRUE,TRUE,"New York New York Hotel & Casino3790 Las Vegas Blvd SThe StripLas Vegas, NV 89109",0:00,,FALSE,,,TRUE,7:00,,FALSE,FALSE,0:00,free,TRUE,Las Vegas,TRUE,,3.5,,business,FALSE,FALSE,36.1030009,TRUE,,-115.1735161,0:00,,0:00,1:00,TRUE,FALSE,7:00,,,,FALSE,0:00,TRUE,,,,,7:00,average,,casual,,TRUE,[u'The Strip'],,FALSE,,FALSE
FALSE,,TRUE,18:00,,,,,18:00,,FALSE,full_bar,FALSE,,FALSE,VcgYPX95J6_mfrEopzR0Zw,TRUE,,18:00,,"[u'Bars', u'Nightlife']",,18:00,Coyote Ugly Saloon,FALSE,FALSE,,,FALSE,,,2,,TRUE,,TRUE,237,,NV,TRUE,4:00,,FALSE,,"New York-New York Las Vegas Hotel & Casino3790 Las Vegas Blvd SThe StripLas Vegas, NV 89109",4:00,,,FALSE,,,18:00,,FALSE,,4:00,,TRUE,Las Vegas,TRUE,,2.5,,business,,FALSE,36.1014644,,FALSE,-115.1742135,4:00,,4:00,4:00,,FALSE,18:00,,FALSE,,FALSE,4:00,FALSE,,,,,18:00,very_loud,yes,,,TRUE,[u'The Strip'],,FALSE,TRUE,FALSE
FALSE,,,16:00,TRUE,,,FALSE,16:00,FALSE,FALSE,full_bar,TRUE,,FALSE,Ensu96ecI0OReupNS2x7ig,FALSE,TRUE,16:00,FALSE,"[u'Steakhouses', u'Restaurants']",TRUE,16:00,Gallagher's Steakhouse,FALSE,FALSE,yes_corkage,,,,,3,FALSE,TRUE,,,728,,NV,TRUE,0:00,FALSE,FALSE,FALSE,"New York New York Hotel Casino3790 Las Vegas Blvd SThe StripLas Vegas, NV 89109",23:00,,FALSE,,,TRUE,16:00,,FALSE,FALSE,23:00,no,TRUE,Las Vegas,TRUE,,4,,business,FALSE,FALSE,36.10251518,TRUE,,-115.1742465,23:00,,23:00,0:00,FALSE,FALSE,16:00,,,,FALSE,23:00,FALSE,,,,,16:00,average,,casual,,TRUE,[u'The Strip'],,FALSE,,FALSE
FALSE,,,11:00,,,,,11:00,FALSE,FALSE,full_bar,FALSE,,FALSE,xhh72bIFefOaAxsj4vJJaA,FALSE,,11:00,FALSE,"[u'Mexican', u'Restaurants']",TRUE,11:00,Gonzalez Y Gonzalez Restaurant,FALSE,FALSE,,,,,,2,FALSE,TRUE,,,335,,NV,TRUE,2:00,FALSE,FALSE,TRUE,"3790 Las Vegas Blvd SThe StripLas Vegas, NV 89109",1:00,,FALSE,,,TRUE,11:00,,FALSE,FALSE,1:00,no,TRUE,Las Vegas,TRUE,,3.5,,business,FALSE,FALSE,36.1030101,TRUE,,-115.1735187,1:00,,1:00,2:00,TRUE,FALSE,11:00,,,,TRUE,1:00,TRUE,,,,,11:00,average,,casual,,TRUE,[u'The Strip'],,FALSE,,FALSE
,,,8:00,,,,,8:00,,,,,,FALSE,1ZzAk-yucZfq_Msv4-lHUw,,,8:00,,"[u'Gift Shops', u'Flowers & Gifts', u'Shopping']",,8:00,Grand Canyon Experience,FALSE,,,,,,,1,,TRUE,,,30,,NV,TRUE,4:00,,FALSE,,"3791 Las Vegas Blvd SThe StripLas Vegas, NV 89109",4:00,,,,,,8:00,,,,4:00,,TRUE,Las Vegas,,,3.5,,business,,,36.1025459,,,-115.172271,4:00,,4:00,4:00,,FALSE,8:00,,,,,4:00,,,,,,8:00,,,,,,[u'The Strip'],,,,
,,,,,,,,,,,,,,FALSE,JStWtGSBqd4Q3cztXUfiQA,,,,,"[u'Department Stores', u'Fashion', u'Shopping', u'Home Decor', u'Home & Garden']",,,Bloomingdale's Home,FALSE,,,,,,,3,,FALSE,,,5,,NV,TRUE,,,FALSE,,"3200 Las Vegas BlvdThe StripLas Vegas, NV 89109",,,,,,,,,,,,,FALSE,Las Vegas,,,3,,business,,,36.1277253,,,-115.1744147,,,,,,FALSE,,,,,,,,,,,,,,,,,,[u'The Strip'],,,,
,,,,,,,,,,,,,,,_YqGfxbalxxMf-s0v8-qSA,,,,,"[u'Arts & Entertainment', u'Casinos']",,,Aladdin Resort & Casino,,,,,,,,,,,,,3,,NV,,,,,,"3667 Las Vegas Blvd SThe StripLas Vegas, NV 89109",,,,,,,,,,,,,FALSE,Las Vegas,,,3.5,,business,,,36.1100629,,,-115.1708909,,,,,,,,,,,,,,,,,,,,,,,,[u'The Strip'],,,,
FALSE,,,,,,,,,FALSE,FALSE,,FALSE,,,2Ju9HrZA8DcV2iEzhUfhnw,FALSE,,,FALSE,"[u'Food', u'Pretzels']",,,Auntie Anne's,,FALSE,,,,,,1,FALSE,,,,9,,NV,TRUE,,FALSE,,TRUE,"3200 S Las Vegas BlvdSpc 5534The StripLas Vegas, NV 89109",,,FALSE,,,FALSE,,,FALSE,FALSE,,,TRUE,Las Vegas,,,4,,business,,FALSE,36.1277253,FALSE,,-115.1744147,,,,,TRUE,,,,,,FALSE,,FALSE,,,FALSE,,,,,casual,,TRUE,[u'The Strip'],,FALSE,,FALSE
FALSE,,,,,,,,,FALSE,FALSE,full_bar,FALSE,,FALSE,76t_NE9GQthoryLZgDyxGg,FALSE,,,FALSE,"[u'American (New)', u'Restaurants']",TRUE,,Caribe CafÌ©,FALSE,FALSE,,,,,,2,TRUE,TRUE,,,22,,NV,TRUE,,FALSE,FALSE,TRUE,"The Mirage3400 Las Vegas Blvd SThe StripLas Vegas, NV 89109",,,FALSE,,,FALSE,,,FALSE,FALSE,,free,FALSE,Las Vegas,TRUE,,2.5,,business,FALSE,FALSE,36.1211955,FALSE,,-115.1740737,,,,,TRUE,FALSE,,,,,TRUE,,FALSE,,,,,,average,,casual,,TRUE,[u'The Strip'],,FALSE,,FALSE
FALSE,,FALSE,17:00,,,,,17:00,FALSE,FALSE,full_bar,FALSE,,FALSE,uCFoGYwwjXqsRdmD8Ecskw,FALSE,FALSE,,FALSE,"[u'Bars', u'Wine Bars', u'Nightlife', u'Lounges', u'Italian', u'Restaurants']",TRUE,17:00,Portofino by Chef Michael LaPlaca,FALSE,FALSE,yes_free,,,,,3,FALSE,TRUE,,FALSE,175,,NV,TRUE,22:00,FALSE,TRUE,TRUE,"The Mirage Hotel & Casino3400 Las Vegas BlvdThe StripLas Vegas, NV 89109",22:00,,FALSE,,,TRUE,17:00,,FALSE,FALSE,,free,TRUE,Las Vegas,TRUE,,4,,business,FALSE,FALSE,36.1240236,TRUE,FALSE,-115.1703564,22:00,,,22:00,FALSE,FALSE,17:00,,FALSE,,TRUE,22:00,FALSE,,,,,,average,no,dressy,,TRUE,[u'The Strip'],,FALSE,,TRUE
FALSE,,,17:00,,,,,17:00,FALSE,FALSE,full_bar,TRUE,,FALSE,wQgdpcqcA0HgDVZvrOk7Yw,FALSE,,17:00,FALSE,"[u'Seafood', u'Steakhouses', u'Restaurants']",TRUE,17:00,Kokomo's Steak & Seafood,FALSE,FALSE,,,,,,4,FALSE,TRUE,,,143,,NV,TRUE,22:30,FALSE,TRUE,FALSE,"The Mirage3400 Las Vegas Blvd SThe StripLas Vegas, NV 89109",22:30,,FALSE,,,TRUE,17:00,,FALSE,FALSE,22:30,no,FALSE,Las Vegas,TRUE,,3.5,,business,FALSE,FALSE,36.12136055,TRUE,,-115.174042,22:30,,22:30,22:30,FALSE,FALSE,17:00,,,,FALSE,22:30,FALSE,,,,,17:00,average,,dressy,,TRUE,[u'The Strip'],,TRUE,,FALSE
,,,,,,,,,,,,,,FALSE,bBa-yhJhur5jNlP1BwtrwA,,,,,"[u'Fashion', u'Shopping', u'Shoe Stores']",,,Tod's,FALSE,,,,,,,4,,TRUE,,,6,,NV,TRUE,,,FALSE,,"3500 Las Vegas BlvdThe StripLas Vegas, NV 89109",,,,,,,,,,,,,TRUE,Las Vegas,,,4,,business,,,36.1190372,,,-115.176005,,,,,,FALSE,,,,,,,,,,,,,,,,,,[u'The Strip'],,,,
,,,,,,,,,,,,,,TRUE,Pi9EcYGuqNqidxbiqLAI4A,,,,,"[u""Women's Clothing"", u'Fashion', u'Shopping']",,,Stash Clothing Store -Womens,FALSE,,,,,,,2,,FALSE,,,12,,NV,TRUE,,,FALSE,,"3663 Las Vegas Blvd SThe StripLas Vegas, NV 89109",,,,,,,,,,,,,TRUE,Las Vegas,,,4.5,,business,,,36.1107323,,,-115.1722365,,,,,,FALSE,,,,,,,,,,,,,,,,,,[u'The Strip'],,,,
FALSE,,,8:00,,,,,8:00,FALSE,FALSE,full_bar,FALSE,,FALSE,SSbId_gHGjtXWnObc_S0nw,FALSE,,8:00,FALSE,"[u'Seafood', u'Restaurants']",TRUE,8:00,Oyster Bay Seafood,FALSE,FALSE,,,,,,2,FALSE,TRUE,,,144,,NV,TRUE,0:00,TRUE,FALSE,TRUE,"3663 Las Vegas Blvd SThe StripLas Vegas, NV 89109",23:00,,FALSE,,,TRUE,8:00,,FALSE,FALSE,23:00,no,TRUE,Las Vegas,TRUE,,3,,business,FALSE,FALSE,36.1107323,FALSE,,-115.1722365,23:00,,23:00,0:00,TRUE,FALSE,8:00,,,,TRUE,23:00,TRUE,,,,,8:00,average,,casual,,TRUE,[u'The Strip'],,FALSE,,FALSE
,,,,,,,,,,,,,,,k7ToRC0nf8WFABwPX2ZWPg,,,,,"[u'Hotels & Travel', u'RV Parks']",,,Circusland Rv Park,,,,,,,,,,,,,6,,NV,,,,,,"2880 Las Vegas Blvd SThe StripLas Vegas, NV 89109",,,,,,,,,,,,,TRUE,Las Vegas,,,3.5,,business,,,36.1372216,,,-115.1641742,,,,,,,,,,,,,,,,,,,,,,,,[u'The Strip'],,,,
FALSE,,,16:00,,,,FALSE,16:00,FALSE,FALSE,full_bar,TRUE,,FALSE,8_HGHlHsNdCnTsLQYHteAw,FALSE,TRUE,16:00,FALSE,"[u'Steakhouses', u'Restaurants']",TRUE,16:00,THE Steak House at Circus Circus,FALSE,FALSE,yes_free,,,,,3,FALSE,TRUE,,,406,,NV,TRUE,22:00,FALSE,TRUE,FALSE,"Circus Circus Hotel and Casino2880 Las Vegas Blvd SThe StripLas Vegas, NV 89109",22:00,,FALSE,,,TRUE,16:00,,FALSE,FALSE,22:00,no,TRUE,Las Vegas,TRUE,,4,,business,FALSE,FALSE,36.137041,TRUE,,-115.164611,22:00,,22:00,23:00,FALSE,FALSE,16:00,,,,FALSE,22:00,FALSE,,,,,16:00,average,,casual,,TRUE,[u'The Strip'],FALSE,FALSE,,FALSE
FALSE,,,,,,,,,FALSE,FALSE,none,FALSE,,,e2YAkS0ASRF9ByEAWpDXWA,FALSE,,,FALSE,"[u'Fast Food', u'Sandwiches', u'Restaurants']",FALSE,,Subway,,FALSE,,,,,,1,FALSE,,,,14,,NV,TRUE,,TRUE,,TRUE,"3791 Las Vegas Boulevard SThe StripLas Vegas, NV 89109",,,FALSE,,,FALSE,,,FALSE,FALSE,,,TRUE,Las Vegas,TRUE,,2,,business,,FALSE,36.1025459,FALSE,,-115.172271,,,,,TRUE,,,,,,FALSE,,FALSE,,,FALSE,,,,,casual,,TRUE,[u'The Strip'],,FALSE,,FALSE
,,,,,,,,,,,,,,,Pg-cfve6yIhdFMsCU_b72Q,,,,,"[u""Women's Clothing"", u'Fashion', u'Shopping', u'Accessories']",,,Wet Seal,,,,,,,,,,,,,3,,NV,TRUE,,,,,"3200 Las Vegas Boulevard SThe StripLas Vegas, NV 89109",,,,,,,,,,,,,TRUE,Las Vegas,,,3.5,,business,,,36.1277253,,,-115.1744147,,,,,,,,,,,,,,,,,,,,,,,,[u'The Strip'],,,,
FALSE,,,,,,,,,FALSE,TRUE,full_bar,FALSE,,FALSE,88CNSyeoKhGn1x0SHvz8Ig,FALSE,,,FALSE,"[u'American (New)', u'Restaurants']",TRUE,,Postrio,FALSE,FALSE,,,,,,3,FALSE,TRUE,,,380,,NV,TRUE,,FALSE,TRUE,TRUE,"The Grand Canal Shoppes At the Venetian3377 Las Vegas Blvd S, Ste 2410The StripLas Vegas, NV 89109",,,FALSE,,,TRUE,,,FALSE,FALSE,,free,FALSE,Las Vegas,TRUE,,3.5,,business,TRUE,FALSE,36.1214517,TRUE,,-115.1696112,,,,,FALSE,FALSE,,,,,FALSE,,TRUE,,,,,,average,,casual,,TRUE,[u'The Strip'],,FALSE,,FALSE
,,,,,,,,,FALSE,,none,,,,#NAME?,,,,FALSE,[u'Restaurants'],FALSE,,Good2Go,,,,,,,,1,FALSE,,,,3,,NV,TRUE,,FALSE,,TRUE,"3475 Las Vegas Boulevard SThe StripLas Vegas, NV 89109",,,FALSE,,,,,,,,,,TRUE,Las Vegas,,,2.5,,business,,,36.1193098,FALSE,,-115.1717702,,,,,,,,,,,FALSE,,,,,,,,loud,,casual,,,[u'The Strip'],,,,
,,,10:00,,,,,10:00,,,,,,FALSE,7W3AV-yRqhAgABU5qJ2_xg,,,10:00,,"[u'Leather Goods', u""Men's Clothing"", u""Women's Clothing"", u'Fashion', u'Shopping']",,10:00,Versace,FALSE,,,,,,,4,,FALSE,,,10,,NV,TRUE,0:00,,FALSE,,"The Forum Shops at Caesars3500 Las Vegas Blvd SouthThe StripLas Vegas, NV 89109",23:00,,,,,,10:00,,,,23:00,,TRUE,Las Vegas,,,3.5,,business,,,36.1190372,,,-115.176005,23:00,,23:00,0:00,,FALSE,10:00,,,,,23:00,,,,,,10:00,,,,,,[u'The Strip'],,,,
,,,9:00,,,,,9:00,,,,,,,f8RVv5lQxuC8vXr0y58nbA,,,9:00,,"[u'Wedding Planning', u'Event Planning & Services']",,9:00,Weddings by Tropicana Las Vegas,,,,,,,,,,,,,8,,NV,TRUE,17:00,,,,"3801 Las Vegas Blvd SThe StripLas Vegas, NV 89109",17:00,,,,,,9:00,,,,17:00,,TRUE,Las Vegas,,,4.5,,business,,,36.0993632,,,-115.1709616,17:00,,17:00,17:00,,,9:00,,,,,17:00,,,,,,9:00,,,,,,[u'The Strip'],,,,
FALSE,,,10:00,,,,,10:00,FALSE,TRUE,beer_and_wine,FALSE,,FALSE,1zXOyqvXGIf-S7vUhNk0pg,FALSE,,10:00,FALSE,"[u'Fast Food', u'Mexican', u'Restaurants']",FALSE,10:00,Chipotle Mexican Grill,FALSE,FALSE,,,,,,1,FALSE,TRUE,,,90,,NV,TRUE,1:00,TRUE,FALSE,TRUE,"3475 Las Vegas BlvdThe StripLas Vegas, NV 89109",0:00,,FALSE,,,FALSE,10:00,,FALSE,FALSE,0:00,no,TRUE,Las Vegas,TRUE,,3.5,,business,FALSE,FALSE,36.120095,TRUE,,-115.171769,0:00,,0:00,1:00,TRUE,FALSE,10:00,,,,FALSE,0:00,TRUE,,,FALSE,,10:00,loud,,casual,,TRUE,[u'The Strip'],,FALSE,,FALSE
FALSE,,,11:00,,,,,12:00,FALSE,FALSE,beer_and_wine,FALSE,,FALSE,5qjymvfMcJCwRmSEyjymgw,FALSE,,11:00,FALSE,"[u'Fast Food', u'American (Traditional)', u'Mexican', u'Restaurants']",FALSE,11:00,Blue Iguana Mexican Express,FALSE,FALSE,,,,,,1,FALSE,TRUE,,,56,,NV,TRUE,0:00,TRUE,FALSE,TRUE,"Circus Circus Las Vegas2800 Las Vegas Blvd SThe StripLas Vegas, NV 89109",16:00,,FALSE,,,FALSE,12:00,,FALSE,FALSE,16:00,no,TRUE,Las Vegas,,,2,,business,FALSE,FALSE,36.1369777,FALSE,,-115.1633366,16:00,,16:00,0:00,TRUE,FALSE,,,,,FALSE,,TRUE,,,FALSE,,11:00,average,,casual,,TRUE,[u'The Strip'],,FALSE,,FALSE
FALSE,,,,,,,,,TRUE,TRUE,none,FALSE,,FALSE,1MV1NiYK-AbmEwRGR8n1pQ,FALSE,,,TRUE,"[u'Fast Food', u'Mexican', u'Restaurants']",FALSE,,Del Taco,FALSE,TRUE,,,,,,1,FALSE,FALSE,,,23,,NV,TRUE,,TRUE,FALSE,TRUE,"3785 Las Vegas Blvd SThe StripLas Vegas, NV 89109",,,FALSE,,,FALSE,,,FALSE,FALSE,,paid,TRUE,Las Vegas,TRUE,,3.5,,business,FALSE,FALSE,36.1035296,FALSE,,-115.1723424,,,,,TRUE,FALSE,,,,,FALSE,,FALSE,,,FALSE,,,average,,casual,,TRUE,[u'The Strip'],,FALSE,,FALSE
,,,10:00,,,,,10:00,,,,,,FALSE,dILQ1N215cBYHseT0x7WHg,,,10:00,,"[u""Women's Clothing"", u'Department Stores', u'Fashion', u'Shopping', u""Men's Clothing""]",,10:00,Nordstrom,FALSE,,,,,,,3,,TRUE,,,96,,NV,TRUE,21:00,,FALSE,,"Fashion Show Mall3200 Las Vegas Blvd SThe StripLas Vegas, NV 89109",21:00,,,,,,10:00,,,,21:00,,TRUE,Las Vegas,TRUE,,4,,business,,,36.12839887,,,-115.1728285,21:00,,21:00,21:00,,FALSE,11:00,,,,,19:00,,,,,,10:00,,,,,,[u'The Strip'],,,,
,,,,,,,,,,,,,,FALSE,oNLZi_gWdn-8WehMI5Jzvw,,,,,"[u'Shopping Centers', u'Shopping']",,,Desert Passage At Aladdin,FALSE,,,,,,,2,,FALSE,,,20,,NV,TRUE,,,FALSE,,"3663 Las Vegas Blvd SThe StripLas Vegas, NV 89109",,,,,,,,,,,,,FALSE,Las Vegas,TRUE,,3.5,,business,,,36.1107323,,,-115.1722365,,,,,,FALSE,,,,,,,,,,,,,,,,,,[u'The Strip'],,,,
,,,,,,,,,,,,,,FALSE,PNlZ5YrAAEKrFMFY4WhBSw,,,,,"[u'Food', u'Specialty Food', u'Candy Stores', u'Chocolatiers & Shops']",,,Teuscher Chocolates,FALSE,,,,,,,3,,FALSE,,,7,,NV,TRUE,,,FALSE,,"3663 Las Vegas Blvd SThe StripLas Vegas, NV 89109",,,,,,,,,,,,,FALSE,Las Vegas,TRUE,,3.5,,business,,,36.1107323,,,-115.1722365,,,,,,FALSE,,,,,,,,,,,,,,,,,,[u'The Strip'],,,,
,,,,,,,,,,,,,,,e4Zi7Sck0-P60zMg-2M6eA,,,,,"[u'Arts & Entertainment', u'Art Galleries', u'Shopping']",,,Jack Gallery,,,,,,,,4,,,,,3,,NV,TRUE,,,,,"3377 Las Vegas Blvd S2275The StripLas Vegas, NV 89109",,,,,,,,,,,,,FALSE,Las Vegas,TRUE,,3.5,,business,,,36.1218632,,,-115.1696491,,,,,,,,,,,,,,,,,,,,,,,,[u'The Strip'],,,,
,,,,,,,,,,,,,,FALSE,ZVmZaTHC5bBlA9ihtBDlww,,,,,"[u""Women's Clothing"", u'Fashion', u'Shopping']",,,Prada,FALSE,,,,,,,4,,TRUE,,,14,,NV,TRUE,,,FALSE,,"Bellagio Shops3600 Las Vegas Blvd SThe StripLas Vegas, NV 89109",,,,,,,,,,,,,TRUE,Las Vegas,TRUE,,4,,business,,,36.112238,,,-115.1790843,,,,,,FALSE,,,,,,,,,,,,,,,,,,[u'The Strip'],,,,
FALSE,,,8:00,,,,FALSE,8:00,FALSE,FALSE,full_bar,FALSE,,FALSE,sxRI0je6hAR-MeBDxdyhug,TRUE,,8:00,FALSE,"[u'American (Traditional)', u'Restaurants']",TRUE,8:00,Rainforest CafÌ©,FALSE,FALSE,no,,,,,2,FALSE,TRUE,,,452,,NV,TRUE,0:00,FALSE,FALSE,TRUE,"3799 Las Vegas BlvdThe StripLas Vegas, NV 89109",23:00,,FALSE,,,TRUE,8:00,,FALSE,FALSE,23:00,no,FALSE,Las Vegas,TRUE,,2.5,,business,FALSE,FALSE,36.10866157,TRUE,,-115.1721415,23:00,,23:00,0:00,TRUE,FALSE,8:00,,,,FALSE,23:00,FALSE,,,,,8:00,loud,,casual,,TRUE,[u'The Strip'],,FALSE,,FALSE
,,,,,,,,,,,,,,FALSE,aPvOFfVgfbNYkiTSjvC5xg,,,,,"[u""Women's Clothing"", u'Fashion', u'Shopping', u'Accessories']",,,Dolce & Gabbana,FALSE,,,,,,,4,,FALSE,,,3,,NV,TRUE,,,FALSE,,"3500 Las Vegas Boulevard SThe StripLas Vegas, NV 89109",,,,,,,,,,,,,FALSE,Las Vegas,,,4.5,,business,,,36.1190372,,,-115.176005,,,,,,FALSE,,,,,,,,,,,,,,,,,,[u'The Strip'],,,,
,,,10:00,,,,,10:00,,,,,,FALSE,XWgur3BY0odC8poiDO4XIg,,,10:00,,"[u'Food', u'Ice Cream & Frozen Yogurt', u'Specialty Food', u'Desserts', u'Chocolatiers & Shops']",TRUE,10:00,Ghirardelli Ice Cream and Chocolate Shop,FALSE,,,,,,,1,,FALSE,,,33,,NV,TRUE,1:00,,FALSE,,"Harrah's Carnaval Court3475 Las Vegas Blvd SThe StripLas Vegas, NV 89109",1:00,,,,,FALSE,10:00,,,FALSE,1:00,no,FALSE,Las Vegas,FALSE,,4,,business,,,36.1193098,,,-115.1717702,1:00,,1:00,1:00,TRUE,FALSE,10:00,,,,,1:00,,,,,,10:00,,,casual,,TRUE,[u'The Strip'],,,,
FALSE,,,,,,,,,FALSE,FALSE,none,FALSE,,FALSE,L2Xw6ogv6iIbQ0RlbAWDdA,FALSE,,,FALSE,[u'Restaurants'],FALSE,,Philadelphia Steak & Hoagie,FALSE,FALSE,,,,,,1,FALSE,FALSE,,,12,,NV,TRUE,,FALSE,FALSE,TRUE,"3200 Las Vegas Blvd SThe StripLas Vegas, NV 89109",,,FALSE,,,FALSE,,,FALSE,FALSE,,no,TRUE,Las Vegas,,,2,,business,FALSE,FALSE,36.12706054,FALSE,,-115.1693344,,,,,TRUE,FALSE,,,,,FALSE,,TRUE,,,,,,average,,casual,,TRUE,[u'The Strip'],,FALSE,,FALSE
,,,,,,,,,,,,,,,3hif2KK6jYTQXr0HNspakg,,,,,"[u""Children's Clothing"", u'Fashion', u'Shopping']",,,Janie and Jack #906,,,,,,,,4,,,,,3,,NV,,,,,,"3200 Las Vegas Boulevard SThe StripLas Vegas, NV 89109",,,,,,,,,,,,,TRUE,Las Vegas,,,4.5,,business,,,36.1277253,,,-115.1744147,,,,,,,,,,,,,,,,,,,,,,,,[u'The Strip'],,,,
,,,,,,,,,,,,,FALSE,FALSE,dI9WzOviQpOAURZR3xOPog,,,,,"[u'Shopping', u'Cosmetics & Beauty Supply', u'Beauty & Spas']",,,H2O Plus,FALSE,,,,,,,,,FALSE,,,3,,NV,TRUE,,,FALSE,,"3663 Las Vegas Blvd SThe StripLas Vegas, NV 89109",,,,,,,,,,,,,TRUE,Las Vegas,,,5,,business,,,36.1107323,,,-115.1722365,,,,,,FALSE,,,,,,,,,,,,,,,,,,[u'The Strip'],,,,
,,,10:00,,,,,10:00,,,,,,,B8vi1cCbjqLYAjZbKAvFrg,,,10:00,,"[u'Sporting Goods', u'Fashion', u'Shopping', u'Shoe Stores', u'Sports Wear']",,10:00,Puma,,,,,,,,,,,,,4,,NV,,21:00,,,,"Fashion Show Mall3200 Las Vegas Blvd SThe StripLas Vegas, NV 89109",21:00,,,,,,10:00,,,,21:00,,TRUE,Las Vegas,,,3.5,,business,,,36.1277253,,,-115.1744147,21:00,,21:00,21:00,,,11:00,,,,,19:00,,,,,,10:00,,,,,,[u'The Strip'],,,,
,,,10:00,,,,,10:00,,,,,,FALSE,0gc9CDHaI4EvqI9A9H3Xug,,,10:00,,"[u'Fashion', u'Shopping']",,10:00,Roberto Cavalli,FALSE,,,,,,,4,,FALSE,,,4,,NV,TRUE,0:00,,FALSE,,"3500 Las Vegas Boulevard SThe StripLas Vegas, NV 89109",23:00,,,,,,10:00,,,,23:00,,TRUE,Las Vegas,,,3,,business,,,36.1190372,,,-115.176005,23:00,,23:00,0:00,,FALSE,10:00,,,,,23:00,,,,,,10:00,,,,,,[u'The Strip'],,,,
FALSE,,,11:00,,,,,11:00,FALSE,FALSE,full_bar,FALSE,,FALSE,MWkIQNT5ewKwMfKbixgb6Q,FALSE,,11:00,FALSE,"[u'American (Traditional)', u'Pizza', u'Restaurants']",TRUE,11:00,California Pizza Kitchen,FALSE,FALSE,,,,,,2,FALSE,TRUE,,,115,,NV,TRUE,21:00,TRUE,FALSE,TRUE,"3200 Las Vegas BlvdSp#1590The StripLas Vegas, NV 89109",21:00,,FALSE,,,TRUE,11:00,,FALSE,FALSE,21:00,no,TRUE,Las Vegas,TRUE,,3.5,,business,FALSE,FALSE,36.127512,FALSE,,-115.1735621,21:00,,21:00,21:00,TRUE,FALSE,11:00,,,,TRUE,19:00,TRUE,,,,,11:00,average,,casual,,TRUE,[u'The Strip'],,FALSE,,FALSE
,,,,,,,,,,,,,,,pM74HrapFY-eHMKGITCoKQ,,,,,"[u""Women's Clothing"", u'Fashion', u'Shopping']",,,Bernini Collection,,,,,,,,3,,,,,3,,NV,,,,,,"3500 Las Vegas Blvd SThe StripLas Vegas, NV 89109",,,,,,,,,,,,,TRUE,Las Vegas,,,2,,business,,,36.1190372,,,-115.176005,,,,,,,,,,,,,,,,,,,,,,,,[u'The Strip'],,,,
,,,6:30,,,,,6:30,FALSE,FALSE,,,,FALSE,TW09vk9XyZVjSY7Kb2TXPQ,,,6:30,FALSE,"[u'Delis', u'Restaurants']",TRUE,6:30,Stage Deli Of Las Vegas,FALSE,,,,,,,2,FALSE,TRUE,,,26,,NV,TRUE,6:30,TRUE,TRUE,TRUE,"Caesars Palace - The Forum Shops3500 Las Vegas Blvd SSte E11The StripLas Vegas, NV 89109",3:30,,FALSE,,,,6:30,,,FALSE,3:30,,FALSE,Las Vegas,TRUE,,3.5,,business,,,36.1173432,TRUE,,-115.1763623,3:30,,3:30,6:30,TRUE,FALSE,6:30,,,,,3:30,,,,,,6:30,,,casual,,TRUE,[u'The Strip'],,,,
,,,10:00,,,,,10:00,,,,,FALSE,FALSE,Gk5A9i7dezBIIDSN0zTICQ,,,10:00,,"[u'Arts & Entertainment', u'Art Galleries', u'Shopping']",,10:00,Regis Galerie,FALSE,,,,,,,2,,TRUE,,,8,,NV,TRUE,0:00,,TRUE,,"3377 Las Vegas Blvd SSte 2060The StripLas Vegas, NV 89109",23:00,,,,,,10:00,,,,23:00,,TRUE,Las Vegas,TRUE,,4,,business,,,36.1218632,,,-115.1696491,23:00,,23:00,0:00,FALSE,FALSE,10:00,,,,,23:00,,,,,,10:00,,,,,,[u'The Strip'],,,,
,,,,,,,,,,,,,,FALSE,sGstzj6ALoyvzjTHo6umtw,,,,,"[u'Fashion', u'Shopping']",,,Giorgio Armani Boutique,FALSE,,,,,,,4,,FALSE,,,4,,NV,TRUE,,,FALSE,,"3600 Las Vegas Blvd SThe StripLas Vegas, NV 89109",,,,,,,,,,,,,TRUE,Las Vegas,,,5,,business,,,36.112238,,,-115.1790843,,,,,,FALSE,,,,,,,,,,,,,,,,,,[u'The Strip'],,,,
,,,,,,,,,,,,,,FALSE,IcAk0BvR8xcE8xnLpbdOvQ,,,,,"[u""Women's Clothing"", u'Fashion', u'Shopping', u'Accessories']",,,Pea In the Pod Maternity Redefined,FALSE,,,,,,,3,,FALSE,,,6,,NV,TRUE,,,FALSE,,"Fashion Show Mall3200 Las Vegas Blvd SThe StripLas Vegas, NV 89109",,,,,,,,,,,,,TRUE,Las Vegas,,,3.5,,business,,,36.1277253,,,-115.1744147,,,,,,FALSE,,,,,,,,,,,,,,,,,,[u'The Strip'],,,,
,,,10:00,,,,,10:00,,,,,,FALSE,DVppg4NQceZw7b4KMyj2Ng,,,10:00,,"[u'Leather Goods', u""Women's Clothing"", u'Fashion', u'Shopping', u'Accessories']",,10:00,HermÌ¬s,FALSE,,,,,,,4,,TRUE,,,23,,NV,TRUE,0:00,,FALSE,,"The Crystals3720 Las Vegas BlvdThe StripLas Vegas, NV 89109",23:00,,,,,,10:00,,,,23:00,,TRUE,Las Vegas,TRUE,,2.5,,business,,,36.1071613,,,-115.1738191,23:00,,23:00,0:00,,FALSE,,,,,,,,,,,,10:00,,,,,,[u'The Strip'],,,,
,,,,,,,,,,,,,FALSE,,iOORcyFGia8I6L9ULuoN3A,,,,,"[u'Shopping', u'Jewelry']",,,Shemoni Jewelry,,,,,,,,2,,,,,3,,NV,TRUE,,,,,"Planet Hollywood Miracle Mile Shops3663 Las Vegas Blvd S, Ste 85The StripLas Vegas, NV 89109",,,,,,,,,,,,,TRUE,Las Vegas,,,3,,business,,,36.1107323,,,-115.1722365,,,,,,,,,,,,,,,,,,,,,,,,[u'The Strip'],,,,
,,,,,,,,,,,,,,FALSE,sCcXpSPRyq3360vHsAzf-A,,,,,"[u'Electronics', u'Shopping']",,,Vegas Foto,FALSE,,,,,,,4,,FALSE,,,7,,NV,TRUE,,,FALSE,,"3475 Las Vegas Boulevard SThe StripLas Vegas, NV 89109",,,,,,,,,,,,,TRUE,Las Vegas,,,1.5,,business,,,36.1193098,,,-115.1717702,,,,,,FALSE,,,,,,,,,,,,,,,,,,[u'The Strip'],,,,
,,,,,,,,,,,,,,,DU5qXUgB9EHThrs3eJO-bg,,,,,"[u'Barbeque', u'Restaurants']",,,Kimchi Restaurants,,,,,,,,,,,,,3,,NV,,,,,,"3049 Las Vegas Blvd SSte 20The StripLas Vegas, NV 89109",,,,,,,,,,,,,TRUE,Las Vegas,,,2.5,,business,,,36.1314967,,,-115.1645622,,,,,,,,,,,,,,,,,,,,,,,,[u'The Strip'],,,,
,,,,,,,,,,,,,,FALSE,SVDLDELOyuHjVlN44VzWKg,,,,,"[u'Tobacco Shops', u'Shopping']",,,Davidoff of Geneva,FALSE,,,,,,,3,,TRUE,,,14,,NV,TRUE,,,TRUE,,"Venetian Hotel And Casino3377 Las Vegas Blvd S, Ste 2430The StripLas Vegas, NV 89109",,,,,,,,,,,,,TRUE,Las Vegas,TRUE,,3.5,,business,,,36.1218632,,,-115.1696491,,,,,,FALSE,,,,,,,,,,,,,,,,,,[u'The Strip'],,,,
,,,,,,,,,,,,,,FALSE,n_iEzNxvc1d-Rg9u_NbaTA,,,,,"[u'Fashion', u'Shopping', u'Shoe Stores']",,,Salvatore Ferragamo International,FALSE,,,,,,,3,,FALSE,,,6,,NV,TRUE,,,FALSE,,"3500 Las Vegas Blvd SThe StripLas Vegas, NV 89109",,,,,,,,,,,,,TRUE,Las Vegas,,,3,,business,,,36.1190372,,,-115.176005,,,,,,FALSE,,,,,,,,,,,,,,,,,,[u'The Strip'],,,,
,,,10:00,,,,,10:00,,,,,,FALSE,jiSFy_VannfCVBQ6aEG5bA,,,10:00,,"[u""Men's Clothing"", u'Fashion', u'Shopping', u'Accessories']",,10:00,John Varvatos At the Forum Shops,FALSE,,,,,,,4,,TRUE,,,13,,NV,TRUE,0:00,,FALSE,,"3500 Las Vegas Blvd SouthThe StripLas Vegas, NV 89109",23:00,,,,,,10:00,,,,23:00,,TRUE,Las Vegas,,,4,,business,,,36.1190372,,,-115.176005,23:00,,23:00,0:00,,FALSE,10:00,,,,,23:00,,,,,,10:00,,,,,,[u'The Strip'],,,,
FALSE,,,16:30,FALSE,,,FALSE,16:30,FALSE,FALSE,full_bar,FALSE,,FALSE,ASOiJ8MmbBTgK2D1_MQrqg,FALSE,TRUE,16:30,FALSE,"[u'Steakhouses', u'French', u'Restaurants']",TRUE,16:30,Eiffel Tower Restaurant,FALSE,FALSE,yes_corkage,,,,,4,FALSE,TRUE,,,1070,,NV,TRUE,22:45,FALSE,TRUE,FALSE,"Paris Hotel3655 Las Vegas Blvd SThe StripLas Vegas, NV 89109",22:15,,FALSE,,,TRUE,16:30,,FALSE,FALSE,22:15,free,TRUE,Las Vegas,TRUE,,4,,business,FALSE,FALSE,36.11048484,TRUE,,-115.1741893,22:15,,22:15,22:45,FALSE,FALSE,16:30,,,,FALSE,22:15,FALSE,,FALSE,,,16:30,average,,dressy,,TRUE,[u'The Strip'],,TRUE,,FALSE
,,,,,,,,,FALSE,FALSE,,,,,lvLPDHtI4eYrz5kz1_ATAw,,,,FALSE,"[u'Burgers', u'Fast Food', u'Restaurants']",FALSE,,McDonald's,,,,,,,,1,FALSE,,,,20,,NV,TRUE,,FALSE,,TRUE,"3900 Las Vegas Blvd SThe StripLas Vegas, NV 89119",,,FALSE,,,FALSE,,,,FALSE,,free,TRUE,Las Vegas,,,2.5,,business,,,36.095516,FALSE,,-115.1761535,,,,,TRUE,,,,,,FALSE,,,,,FALSE,,,average,,casual,,TRUE,[u'The Strip'],,,,
FALSE,,,,,,,,,FALSE,FALSE,beer_and_wine,FALSE,,FALSE,5DilfgFM7DJDG8Bws05sFA,FALSE,,,FALSE,"[u'Hot Dogs', u'Restaurants']",FALSE,,Nathan's Famous,FALSE,FALSE,,,,,,2,FALSE,TRUE,,,77,,NV,TRUE,,TRUE,TRUE,TRUE,"Luxor Hotel and Casino Food Court3900 Las Vegas Blvd SThe StripLas Vegas, NV 89109",,,FALSE,,,FALSE,,,FALSE,FALSE,,no,TRUE,Las Vegas,TRUE,,3,,business,FALSE,FALSE,36.095424,FALSE,,-115.175922,,,,,TRUE,FALSE,,,,,FALSE,,TRUE,,,FALSE,,,average,,casual,,TRUE,[u'The Strip'],,FALSE,,FALSE
FALSE,,,11:00,,,,FALSE,11:00,FALSE,TRUE,full_bar,FALSE,,FALSE,Q_Rwcv9APBLggk2KAsBEvg,FALSE,,11:00,TRUE,"[u'Tapas/Small Plates', u'Breakfast & Brunch', u'Mexican', u'Restaurants']",TRUE,11:00,Border Grill,FALSE,FALSE,no,,,,,2,FALSE,TRUE,,,1003,,NV,TRUE,23:00,FALSE,TRUE,TRUE,"Mandalay Bay Resort & Casino3950 S Las Vegas BlvdThe StripLas Vegas, NV 89119",22:00,,FALSE,,,TRUE,10:00,,FALSE,FALSE,22:00,no,TRUE,Las Vegas,TRUE,,4,,business,TRUE,FALSE,36.08994986,FALSE,,-115.1758142,22:00,,22:00,23:00,TRUE,FALSE,10:00,,,,TRUE,22:00,TRUE,,,,,11:00,average,,casual,,TRUE,[u'The Strip'],,FALSE,,FALSE
,,,,,,,,,,,,,,FALSE,jR3IlOmE8UZQ1DuQphdvcw,,,,,"[u""Women's Clothing"", u'Fashion', u'Shopping', u'Home Decor', u'Home & Garden']",,,Urban Outfitters,FALSE,,,,,,,2,,TRUE,,,33,,NV,TRUE,,,FALSE,,"3930 Las Vegas Blvd SThe StripLas Vegas, NV 89119",,,,,,,,,,,,,FALSE,Las Vegas,TRUE,,4,,business,,,36.091267,,,-115.174093,,,,,,FALSE,,,,,,,,,,,,,,,,,,[u'The Strip'],,,,
,,,10:00,,,,,10:00,,,,,,FALSE,WvU9iQfZYLFacsHSoCY5cQ,,,10:00,,"[u'Shopping Centers', u'Shopping']",,10:00,Ad-Tel Reservations,FALSE,,,,,,,2,,TRUE,,,9,,NV,TRUE,23:00,,FALSE,,"4990 Paradise RdThe StripLas Vegas, NV 89109",22:00,,,,,,10:00,,,,22:00,,TRUE,Las Vegas,,,3,,business,,,36.11412533,,,-115.17197,22:00,,22:00,23:00,,FALSE,10:00,,,,,22:00,,,,,,10:00,,,,,,[u'The Strip'],,,,
,,,,,,,,,,,,,,,rVmyL2kc6-MXNwjntEyNtg,,,,,"[u'Hotels & Travel', u'Event Planning & Services', u'Hotels']",,,Diamond Inn Motel,,,,,,,,2,,,,,10,,NV,TRUE,,,,,"4605 Las Vegas Blvd SThe StripLas Vegas, NV 89119",,,,,,,,,,,,no,TRUE,Las Vegas,,,2.5,,business,,,36.087443,,,-115.171972,,,,,,,,,,,,,,,,,,,,,,,,[u'The Strip'],,,,
,,,,,,,,,,,,,,,rn9QGx1glE5rHTYcecxUhQ,,,,,"[u'Hotels & Travel', u'Event Planning & Services', u'Hotels']",,,Happi Inn,,,,,,,,1,,,,,3,,NV,,,,,,"3939 Las Vegas Blvd SThe StripLas Vegas, NV 89119",,,,,,,,,,,,,TRUE,Las Vegas,,,3.5,,business,,,36.0932497,,,-115.1726434,,,,,,,,,,,,,,,,,,,,,,,,[u'The Strip'],,,,
,,,,,,,,,,,,,,,bXjIsrY8C0Xlq4fHMIPbLg,,,,,"[u'Hotels & Travel', u'Event Planning & Services', u'Hotels']",,,Motel 8,,,,,,,,2,,,,,5,,NV,TRUE,,,,,"3961 Las Vegas Boulevard SThe StripLas Vegas, NV 89119",,,,,,,,,,,,free,TRUE,Las Vegas,,,2,,business,,,36.0915975,,,-115.1722267,,,,,,,,,,,,,,,,,,,,,,,,[u'The Strip'],,,,
,,TRUE,,,,,,,,FALSE,,,,,f8wqyzyqUbiWtWyMgkxbuw,,,,,"[u'Bars', u'Dive Bars', u'Nightlife', u'Hotels & Travel', u'Hotels', u'Event Planning & Services']",,,Laughing Jackalope Motel Bar & Grill,,,,,FALSE,,,1,,,,,5,,NV,,,,,,"3969 Las Vegas Blvd SThe StripLas Vegas, NV 89119",,,,FALSE,,,,,,,,,FALSE,Las Vegas,FALSE,,4,,business,,,36.0910738,,FALSE,-115.1725477,,,,,,,,,FALSE,,,,,,,,,,,,,,TRUE,[u'The Strip'],,,TRUE,
FALSE,,,10:00,,,,,9:30,FALSE,TRUE,none,FALSE,,TRUE,XHApEDYZZphUL5cw4_Tt6Q,FALSE,,10:00,FALSE,"[u'Chinese', u'Restaurants']",FALSE,10:00,Panda Express,FALSE,FALSE,,,,,,1,FALSE,FALSE,,,15,,NV,TRUE,0:00,FALSE,FALSE,TRUE,"3999 Las Vegas Blvd SThe StripLas Vegas, NV 89119",22:00,,FALSE,,,FALSE,9:30,,FALSE,FALSE,22:00,,TRUE,Las Vegas,TRUE,,3.5,,business,,FALSE,36.0903268,FALSE,,-115.1721201,22:00,,22:00,0:00,TRUE,FALSE,9:30,,,,TRUE,0:00,TRUE,,,FALSE,,10:00,quiet,,casual,,TRUE,[u'The Strip'],,FALSE,,FALSE
FALSE,,,17:00,,,,,17:00,FALSE,FALSE,full_bar,TRUE,,FALSE,ecpYgTTQuXzmYNGxGTvbhw,FALSE,,17:00,FALSE,"[u'Restaurants', u'Italian']",TRUE,17:00,Lupo by Wolfgang Puck,FALSE,FALSE,,,,,,3,FALSE,TRUE,,,347,,NV,TRUE,23:00,FALSE,FALSE,FALSE,"Mandalay Bay Resort & Casino3950 S Las Vegas BlvdThe StripLas Vegas, NV 89119",22:00,,FALSE,,,TRUE,17:00,,FALSE,FALSE,22:00,no,TRUE,Las Vegas,TRUE,,3.5,,business,FALSE,FALSE,36.092078,TRUE,,-115.175303,22:00,,22:00,23:00,FALSE,FALSE,17:00,,,,TRUE,22:00,FALSE,,,,,17:00,average,,dressy,,TRUE,[u'The Strip'],,FALSE,,FALSE
FALSE,,,9:00,,,,,9:00,,,,FALSE,,,Ks-bqekP7c_lGN-RCBr79Q,TRUE,,9:00,,"[u'Pizza', u'Restaurants']",,9:00,Little Caesar's Pizza,,FALSE,,,,,,1,,,,,3,,NV,TRUE,23:00,,,TRUE,"3900 Las Vegas Blvd SThe StripLas Vegas, NV 89119",23:00,,,,,FALSE,15:00,,FALSE,FALSE,23:00,no,FALSE,Las Vegas,,,2,,business,FALSE,FALSE,36.095516,,,-115.1761535,23:00,,23:00,23:00,TRUE,,,,,,,,FALSE,,,,,9:00,,,,,FALSE,[u'The Strip'],,FALSE,,
,,,11:00,,,,,11:00,,,,,,FALSE,NI6TQcN4C3OH1PdaECJgzw,,,11:00,,"[u'Churches', u'Religious Organizations']",,11:00,Shrine of the Most Holy Redeemer,FALSE,,,,,,,,,FALSE,,,22,,NV,,16:30,,FALSE,,"55 E Reno AveThe StripLas Vegas, NV 89119",16:30,,,,,,11:00,,,,19:00,,TRUE,Las Vegas,,,4.5,,business,,,36.0967472,,,-115.169752,16:30,,16:30,19:00,,FALSE,7:00,,,,,19:00,,,,,,11:00,,,,,,[u'The Strip'],,,,
,,,,,,,,,,,,,,TRUE,4lWdRZWRglFyuDyTDOHIKQ,,,,,"[u""Women's Clothing"", u'Fashion', u'Shopping', u'Shoe Stores', u'Accessories']",,,Leonard's Wide Shoes,FALSE,,,,,,,2,,FALSE,,,4,,NV,TRUE,,,FALSE,,"3999 Las Vegas Blvd SThe StripLas Vegas, NV 89119",,,,,,,,,,,,,FALSE,Las Vegas,TRUE,,2.5,,business,,,36.0903268,,,-115.1721201,,,,,,FALSE,,,,,,,,,,,,,,,,,,[u'The Strip'],,,,
,,,,,,,,,,,,,,,ynK2ljcx5S1qSxouBrN5Xg,,,,,"[u'Hotels & Travel', u'Arts & Entertainment', u'Casinos', u'Event Planning & Services', u'Hotels']",,,Stratosphere,,,,,,,,2,,,,,1151,,NV,TRUE,,,,,"2000 Las Vegas Blvd SThe StripLas Vegas, NV 89104",,,,,,,,,,,,paid,TRUE,Las Vegas,,,3,,business,,,36.14742017,,,-115.1555566,,,,,TRUE,,,,,,,,,,,,,,,,,,,[u'The Strip'],,,,
